{"type": "FeatureCollection", "features": [{"type": "Feature", "geometry": {"type": "Point", "coordinates": [174.7556524, -36.9080089]}, "properties": {"addr:housenumber": "532", "addr:postcode": "1042", "addr:street": "Mount Albert Road", "branch": "Three Kings", "brand": "Woolworths", "brand:wikidata": "Q5176845", "name": "Woolworths", "opening_hours": "Mo-Su 07:00-22:00", "phone": "+64 9 624 2317", "shop": "supermarket", "osmId": 65373197, "category": "amenity", "subtype": "shop"}}, {"type": "Feature", "geometry": {"type": "Point", "coordinates": [174.7836582, -36.8980761]}, "properties": {"amenity": "toilets", "check_date": "2025-09-05", "created_by": "Potlatch 0.8c", "fee": "no", "osmId": 111178411, "category": "amenity", "subtype": "toilet"}}, {"type": "Feature", "geometry": {"type": "Point", "coordinates": [174.8165334, -36.8511196]}, "properties": {"amenity": "toilets", "toilets:disposal": "flush", "osmId": 126528597, "category": "amenity", "subtype": "toilet"}}, {"type": "Feature", "geometry": {"type": "Point", "coordinates": [174.7500022, -36.877275]}, "properties": {"amenity": "toilets", "osmId": 148905229, "category": "amenity", "subtype": "toilet"}}, {"type": "Feature", "geometry": {"type": "Point", "coordinates": [174.7975099, -36.8314861]}, "properties": {"access": "yes", "amenity": "toilets", "changing_table": "yes", "check_date": "2025-11-14", "fee": "no", "opening_hours": "06:00-21:00", "toilets:disposal": "flush", "toilets:handwashing": "yes", "toilets:menstrual_products": "no", "toilets:position": "seated", "wheelchair": "yes", "osmId": 148912832, "category": "amenity", "subtype": "toilet"}}, {"type": "Feature", "geometry": {"type": "Point", "coordinates": [174.7961588, -36.8333507]}, "properties": {"access": "yes", "amenity": "toilets", "changing_table": "yes", "changing_table:fee": "no", "changing_table:location": "room", "fee": "no", "wheelchair": "yes", "osmId": 148912919, "category": "amenity", "subtype": "toilet"}}, {"type": "Feature", "geometry": {"type": "Point", "coordinates": [171.5615547, -42.939387]}, "properties": {"addr:city": "Arthur's Pass", "addr:housenumber": "85", "addr:postcode": "7875", "addr:street": "West Coast Road", "addr:suburb": "Arthur's Pass National Park", "amenity": "fuel", "brand": "Challenge", "brand:wikidata": "Q5068888", "fuel:diesel": "yes", "fuel:octane_91": "yes", "name": "Challenge", "note": "After hours call out available for a fee", "opening_hours": "Mo-Su 08:00-17:00", "phone": "+64 3 318 9235", "ref:linz:address_id": "1416590", "website": "https://challenge.net.nz/challenge-stations/station/challenge-arthurs-pass", "osmId": 165095312, "category": "amenity", "subtype": "fuel"}}, {"type": "Feature", "geometry": {"type": "Point", "coordinates": [174.7887866, -41.3450899]}, "properties": {"amenity": "toilets", "changing_table": "yes", "check_date": "2024-01-16", "fee": "no", "source": "local", "osmId": 172715189, "category": "amenity", "subtype": "toilet"}}, {"type": "Feature", "geometry": {"type": "Point", "coordinates": [174.7690702, -41.2809429]}, "properties": {"access": "yes", "amenity": "toilets", "check_date": "2024-10-26", "opening_hours": "10:00-16:00", "source": "knowledge", "toilets:disposal": "flush", "toilets:handwashing": "yes", "osmId": 172790042, "category": "amenity", "subtype": "toilet"}}, {"type": "Feature", "geometry": {"type": "Point", "coordinates": [174.7674852, -41.2855354]}, "properties": {"amenity": "toilets", "changing_table": "yes", "check_date": "2023-01-22", "fee": "no", "source": "knowledge", "wheelchair": "yes", "osmId": 172791989, "category": "amenity", "subtype": "toilet"}}, {"type": "Feature", "geometry": {"type": "Point", "coordinates": [174.8687746, -41.106222]}, "properties": {"amenity": "fuel", "brand": "Mobil", "brand:wikidata": "Q109676002", "brand:wikipedia": "en:Mobil", "fuel:diesel": "yes", "fuel:octane_91": "yes", "fuel:octane_98": "yes", "name": "Mobil", "opening_hours": "24/7", "operator": "Mobil", "shop": "convenience", "wheelchair": "yes", "osmId": 178364918, "category": "amenity", "subtype": "fuel"}}, {"type": "Feature", "geometry": {"type": "Point", "coordinates": [174.9166142, -41.1053813]}, "properties": {"addr:city": "Porirua", "addr:hamlet": "P\u0101uatahanui", "addr:housenumber": "9", "addr:postcode": "5381", "addr:street": "Paekakariki Hill Road", "amenity": "fuel", "brand": "Challenge", "brand:wikidata": "Q5068888", "check_date:opening_hours": "2021-12-28", "compressed_air": "yes", "fuel:diesel": "yes", "fuel:gasoline": "yes", "fuel:octane_91": "yes", "fuel:octane_95": "yes", "name": "Challenge! Pauatahanui", "opening_hours": "Mo-Fr 06:30-18:30; Sa,Su 08:00-18:00", "operator": "Inlet Motors Limited", "self_service": "no", "shop": "convenience", "website": "https://www.challenge.net.nz/Challenge-Stations/Station/challenge-pauatahanui", "wheelchair": "yes", "osmId": 179674400, "category": "amenity", "subtype": "fuel"}}, {"type": "Feature", "geometry": {"type": "Point", "coordinates": [172.668324, -43.248613]}, "properties": {"amenity": "fuel", "brand": "npd", "brand:wikidata": "Q110922616", "fuel:diesel": "yes", "fuel:octane_91": "yes", "fuel:octane_95": "yes", "name": "Sefton Garage", "self_service": "yes", "osmId": 181774012, "category": "amenity", "subtype": "fuel"}}, {"type": "Feature", "geometry": {"type": "Point", "coordinates": [173.287298, -41.2724691]}, "properties": {"addr:city": "Nelson", "addr:housenumber": "69", "addr:street": "Collingwood Street", "brand": "FreshChoice", "brand:wikidata": "Q22271877", "brand:wikipedia": "en:FreshChoice", "check_date": "2024-12-29", "email": "food@freshchoicenelson.co.nz", "name": "FreshChoice", "opening_hours": "Mo-Su 07:00-21:00", "payment:mastercard": "yes", "payment:visa": "yes", "phone": "+64 3 548 0191", "shop": "supermarket", "website": "https://freshchoicenelson.co.nz/", "wheelchair": "limited", "osmId": 204469486, "category": "amenity", "subtype": "shop"}}, {"type": "Feature", "geometry": {"type": "Point", "coordinates": [174.8074493, -41.2258555]}, "properties": {"amenity": "fuel", "brand": "BP", "brand:wikidata": "Q152057", "brand:wikipedia": "en:BP", "fuel:diesel": "yes", "fuel:lpg": "yes", "fuel:octane_91": "yes", "fuel:octane_95": "no", "fuel:octane_98": "yes", "name": "BP Johnsonville", "operator": "BP", "osmId": 206201049, "category": "amenity", "subtype": "fuel"}}, {"type": "Feature", "geometry": {"type": "Point", "coordinates": [173.2250612, -41.3190451]}, "properties": {"amenity": "fuel", "branch": "Stoke", "brand": "Z", "brand:wikidata": "Q8063337", "fuel:diesel": "yes", "fuel:octane_91": "yes", "fuel:octane_95": "yes", "name": "Z", "website": "https://www.z.co.nz/find-a-station/station/z-stoke/", "osmId": 212499672, "category": "amenity", "subtype": "fuel"}}, {"type": "Feature", "geometry": {"type": "Point", "coordinates": [173.1876576, -41.3424441]}, "properties": {"amenity": "fuel", "brand": "BP", "brand:wikidata": "Q152057", "brand:wikipedia": "en:BP", "name": "BP", "osmId": 212500604, "category": "amenity", "subtype": "fuel"}}, {"type": "Feature", "geometry": {"type": "Point", "coordinates": [168.6621961, -45.0246164]}, "properties": {"amenity": "fuel", "brand": "Caltex", "brand:wikidata": "Q277470", "fuel:diesel": "yes", "fuel:octane_91": "yes", "fuel:octane_95": "yes", "name": "Caltex", "osmId": 221918240, "category": "amenity", "subtype": "fuel"}}, {"type": "Feature", "geometry": {"type": "Point", "coordinates": [173.2666505, -41.29546]}, "properties": {"amenity": "fuel", "brand": "Caltex", "brand:wikidata": "Q277470", "brand:wikipedia": "en:Caltex", "fuel:diesel": "yes", "fuel:octane_91": "yes", "fuel:octane_95": "yes", "name": "Caltex", "osmId": 246007685, "category": "amenity", "subtype": "fuel"}}, {"type": "Feature", "geometry": {"type": "Point", "coordinates": [172.5891591, -43.5637106]}, "properties": {"shop": "convenience", "osmId": 249934861, "category": "amenity", "subtype": "shop"}}, {"type": "Feature", "geometry": {"type": "Point", "coordinates": [175.4973623, -36.7606723]}, "properties": {"amenity": "fuel", "brand": "BP", "brand:wikidata": "Q152057", "name": "BP", "osmId": 254286311, "category": "amenity", "subtype": "fuel"}}, {"type": "Feature", "geometry": {"type": "Point", "coordinates": [172.5898422, -43.5348688]}, "properties": {"addr:city": "Christchurch", "addr:country": "NZ", "addr:housenumber": "142", "addr:postcode": "8041", "addr:street": "Peverel Street", "name": "Harrington Park Dairy", "opening_hours": "09:00-20:00", "shop": "convenience", "osmId": 258490336, "category": "amenity", "subtype": "shop"}}, {"type": "Feature", "geometry": {"type": "Point", "coordinates": [174.8016493, -36.8129422]}, "properties": {"amenity": "toilets", "created_by": "JOSM", "wheelchair": "limited", "osmId": 262078156, "category": "amenity", "subtype": "toilet"}}, {"type": "Feature", "geometry": {"type": "Point", "coordinates": [174.7754571, -36.8856729]}, "properties": {"amenity": "toilets", "osmId": 262101967, "category": "amenity", "subtype": "toilet"}}, {"type": "Feature", "geometry": {"type": "Point", "coordinates": [174.7834399, -36.9226323]}, "properties": {"branch": "Onehunga", "brand": "Woolworths", "brand:wikidata": "Q5176845", "brand:wikipedia": "en:Woolworths New Zealand", "name": "Woolworths", "shop": "supermarket", "osmId": 262766209, "category": "amenity", "subtype": "shop"}}, {"type": "Feature", "geometry": {"type": "Point", "coordinates": [174.725027, -36.8805974]}, "properties": {"addr:city": "Auckland", "addr:housenumber": "770-774", "addr:postcode": "1025", "addr:street": "New North Road", "amenity": "fuel", "brand": "Z", "brand:wikidata": "Q8063337", "fuel:diesel": "yes", "fuel:octane_91": "yes", "fuel:octane_95": "yes", "name": "Z", "opening_hours": "24/7", "operator": "Z Energy", "website": "https://www.z.co.nz/find-a-station/station/z-mt-albert/", "osmId": 265493584, "category": "amenity", "subtype": "fuel"}}, {"type": "Feature", "geometry": {"type": "Point", "coordinates": [174.741813, -36.8740587]}, "properties": {"amenity": "fuel", "brand": "Mobil", "brand:wikidata": "Q109676002", "brand:wikipedia": "en:Mobil", "name": "Mobil", "operator": "Mobil", "osmId": 265718030, "category": "amenity", "subtype": "fuel"}}, {"type": "Feature", "geometry": {"type": "Point", "coordinates": [174.7625509, -36.8814559]}, "properties": {"amenity": "toilets", "osmId": 266487081, "category": "amenity", "subtype": "toilet"}}, {"type": "Feature", "geometry": {"type": "Point", "coordinates": [174.7650201, -36.887756]}, "properties": {"amenity": "toilets", "osmId": 267083873, "category": "amenity", "subtype": "toilet"}}, {"type": "Feature", "geometry": {"type": "Point", "coordinates": [175.0109368, -36.7841453]}, "properties": {"amenity": "fuel", "brand": "BP", "brand:wikidata": "Q152057", "brand:wikipedia": "en:BP", "name": "BP", "osmId": 267635027, "category": "amenity", "subtype": "fuel"}}, {"type": "Feature", "geometry": {"type": "Point", "coordinates": [174.7855363, -41.2885692]}, "properties": {"amenity": "toilets", "wheelchair": "yes", "osmId": 267783249, "category": "amenity", "subtype": "toilet"}}, {"type": "Feature", "geometry": {"type": "Point", "coordinates": [175.0802303, -36.7879873]}, "properties": {"amenity": "toilets", "fee": "no", "wheelchair": "limited", "osmId": 267789271, "category": "amenity", "subtype": "toilet"}}, {"type": "Feature", "geometry": {"type": "Point", "coordinates": [175.0726233, -36.7874162]}, "properties": {"amenity": "toilets", "osmId": 267789277, "category": "amenity", "subtype": "toilet"}}, {"type": "Feature", "geometry": {"type": "Point", "coordinates": [175.0797042, -36.7921103]}, "properties": {"amenity": "fuel", "brand": "Challenge", "brand:wikidata": "Q5068888", "brand:wikipedia": "en:Challenge (company)", "name": "Challenge", "osmId": 267789278, "category": "amenity", "subtype": "fuel"}}, {"type": "Feature", "geometry": {"type": "Point", "coordinates": [174.7348598, -36.8411862]}, "properties": {"amenity": "toilets", "osmId": 267832999, "category": "amenity", "subtype": "toilet"}}, {"type": "Feature", "geometry": {"type": "Point", "coordinates": [174.7275868, -36.8440229]}, "properties": {"amenity": "toilets", "osmId": 267835700, "category": "amenity", "subtype": "toilet"}}, {"type": "Feature", "geometry": {"type": "Point", "coordinates": [172.5484725, -43.6629415]}, "properties": {"amenity": "fuel", "brand": "Challenge", "brand:wikidata": "Q5068888", "name": "Challenge", "osmId": 268035522, "category": "amenity", "subtype": "fuel"}}, {"type": "Feature", "geometry": {"type": "Point", "coordinates": [172.7901022, -43.771059]}, "properties": {"amenity": "fuel", "brand": "Challenge", "brand:wikidata": "Q5068888", "check_date": "2024-09-21", "fuel:diesel": "yes", "fuel:octane_91": "yes", "name": "Challenge", "name:en": "Challenge", "osmId": 268151421, "category": "amenity", "subtype": "fuel"}}, {"type": "Feature", "geometry": {"type": "Point", "coordinates": [174.7901089, -41.2906167]}, "properties": {"access": "yes", "amenity": "toilets", "check_date": "2024-10-19", "check_date:opening_hours": "2024-10-19", "fee": "no", "opening_hours": "Mo-Su 09:00-21:00", "toilets:disposal": "flush", "unisex": "yes", "wheelchair": "yes", "osmId": 269292973, "category": "amenity", "subtype": "toilet"}}, {"type": "Feature", "geometry": {"type": "Point", "coordinates": [174.7828634, -41.2939857]}, "properties": {"access": "yes", "amenity": "toilets", "brand": "Exeloo", "changing_table": "no", "check_date": "2024-01-03", "fee": "no", "opening_hours": "24/7", "wheelchair": "yes", "osmId": 269467753, "category": "amenity", "subtype": "toilet"}}, {"type": "Feature", "geometry": {"type": "Point", "coordinates": [168.7315162, -45.0152036]}, "properties": {"addr:city": "Queenstown", "addr:housenumber": "1", "addr:place": "Frankton", "addr:street": "Frankton Ladies Mile Highway", "amenity": "fuel", "brand": "BP", "brand:wikidata": "Q152057", "brand:wikipedia": "en:BP", "fuel:HGV_diesel": "yes", "fuel:diesel": "yes", "fuel:lpg": "yes", "fuel:octane_91": "yes", "fuel:octane_98": "yes", "name": "BP Queenstown", "sanitary_dump_station": "yes", "osmId": 270056710, "category": "amenity", "subtype": "fuel"}}, {"type": "Feature", "geometry": {"type": "Point", "coordinates": [174.7680564, -41.2953009]}, "properties": {"amenity": "toilets", "check_date": "2024-12-30", "fee": "no", "wheelchair": "yes", "osmId": 277836986, "category": "amenity", "subtype": "toilet"}}, {"type": "Feature", "geometry": {"type": "Point", "coordinates": [174.31706, -35.72518]}, "properties": {"amenity": "toilets", "fee": "no", "osmId": 279063892, "category": "amenity", "subtype": "toilet"}}, {"type": "Feature", "geometry": {"type": "Point", "coordinates": [174.7752506, -41.2878945]}, "properties": {"addr:city": "Wellington Central, Wellington", "addr:floor": "G", "addr:housenumber": "68-70", "addr:postcode": "6011", "addr:street": "Willis Street", "air_conditioning": "yes", "branch": "Willis Street Metro", "brand": "New World", "brand:wikidata": "Q7012488", "brand:wikipedia": "en:New World (supermarket)", "check_date": "2025-11-18", "diet:gluten_free": "yes", "diet:halal": "yes", "diet:meat": "yes", "diet:vegan": "yes", "diet:vegetarian": "yes", "internet_access": "wlan", "internet_access:fee": "no", "level": "0", "name": "New World", "opening_hours": "Mo-Fr 07:00-22:00; Sa-Su 08:00-22:00", "operator": "New World", "organic": "yes", "payment:cash": "yes", "payment:mastercard": "yes", "payment:visa": "yes", "phone": "+64 4 471 6580", "shop": "supermarket", "source": "local knowledge", "stroller": "yes", "toilets": "no", "toilets:wheelchair": "no", "website": "https://newworld.co.nz", "wheelchair": "yes", "osmId": 279428355, "category": "amenity", "subtype": "shop"}}, {"type": "Feature", "geometry": {"type": "Point", "coordinates": [174.7814789, -41.2937047]}, "properties": {"name": "Eight 8 Mart", "shop": "convenience", "osmId": 281359712, "category": "amenity", "subtype": "shop"}}, {"type": "Feature", "geometry": {"type": "Point", "coordinates": [174.619445, -36.8940297]}, "properties": {"brand": "Night 'n Day", "brand:wikidata": "Q111955183", "name": "Night 'n Day", "shop": "convenience", "osmId": 281899623, "category": "amenity", "subtype": "shop"}}, {"type": "Feature", "geometry": {"type": "Point", "coordinates": [175.8001734, -39.6790169]}, "properties": {"amenity": "fuel", "brand": "BP", "brand:wikidata": "Q152057", "brand:wikipedia": "en:BP", "compressed_air": "yes", "fuel:diesel": "yes", "fuel:octane_91": "yes", "fuel:octane_95": "no", "fuel:octane_98": "yes", "name": "BP", "osmId": 281905133, "category": "amenity", "subtype": "fuel"}}, {"type": "Feature", "geometry": {"type": "Point", "coordinates": [175.5691607, -39.9360169]}, "properties": {"amenity": "fuel", "branch": "Hunterville", "brand": "BP", "brand:wikidata": "Q152057", "changing_table": "yes", "check_date": "2025-01-14", "fuel:adblue": "yes", "fuel:diesel": "yes", "fuel:octane_91": "yes", "fuel:octane_95": "yes", "name": "BP 2go Hunterville", "opening_hours": "24/7", "operator": "BP", "phone": "+64 6 322 8360", "self_service": "yes", "toilets": "yes", "toilets:wheelchair": "no", "website": "https://map.bp.com/en-NZ/NZ/gas-station/hunterville/bp-2go-hunterville/0DL59", "osmId": 281912112, "category": "amenity", "subtype": "fuel"}}, {"type": "Feature", "geometry": {"type": "Point", "coordinates": [175.5685028, -39.9371004]}, "properties": {"amenity": "fuel", "branch": "Hunterville", "brand": "Challenge", "brand:wikidata": "Q5068888", "fuel:diesel": "yes", "fuel:lpg": "yes", "fuel:octane_91": "yes", "fuel:octane_95": "yes", "name": "Challenge Hunterville", "phone": "+64 6 322 8069", "website": "https://www.challenge.net.nz/Challenge-stations/Station/challenge-hunterville", "osmId": 281912220, "category": "amenity", "subtype": "fuel"}}, {"type": "Feature", "geometry": {"type": "Point", "coordinates": [175.5545769, -40.2302237]}, "properties": {"shop": "convenience", "osmId": 282200485, "category": "amenity", "subtype": "shop"}}, {"type": "Feature", "geometry": {"type": "Point", "coordinates": [175.5666655, -40.2248522]}, "properties": {"amenity": "fuel", "brand": "BP", "brand:wikidata": "Q152057", "brand:wikipedia": "en:BP", "fuel:diesel": "yes", "fuel:octane_91": "yes", "fuel:octane_95": "no", "fuel:octane_98": "yes", "layer": "1", "name": "BP Feilding", "osmId": 282202967, "category": "amenity", "subtype": "fuel"}}, {"type": "Feature", "geometry": {"type": "Point", "coordinates": [172.6467265, -43.5670609]}, "properties": {"name": "On The Spot Cashmere", "shop": "convenience", "osmId": 282420239, "category": "amenity", "subtype": "shop"}}, {"type": "Feature", "geometry": {"type": "Point", "coordinates": [175.4230339, -40.2196513]}, "properties": {"amenity": "fuel", "brand": "Z", "brand:wikidata": "Q8063337", "brand:wikipedia": "en:Z Energy", "name": "Z", "operator": "Z Energy", "website": "https://www.z.co.nz/find-a-station/station/z-sanson/", "osmId": 283558746, "category": "amenity", "subtype": "fuel"}}, {"type": "Feature", "geometry": {"type": "Point", "coordinates": [174.7961341, -36.9759104]}, "properties": {"amenity": "fuel", "brand": "Mobil", "brand:wikidata": "Q109676002", "name": "Mobil", "operator": "Mobil", "osmId": 288057601, "category": "amenity", "subtype": "fuel"}}, {"type": "Feature", "geometry": {"type": "Point", "coordinates": [174.7932666, -41.3044088]}, "properties": {"amenity": "toilets", "changing_table": "yes", "fee": "no", "wheelchair": "yes", "osmId": 288641871, "category": "amenity", "subtype": "toilet"}}, {"type": "Feature", "geometry": {"type": "Point", "coordinates": [172.6430501, -43.5897871]}, "properties": {"access": "yes", "amenity": "toilets", "unisex": "yes", "osmId": 289250940, "category": "amenity", "subtype": "toilet"}}, {"type": "Feature", "geometry": {"type": "Point", "coordinates": [172.5774004, -43.5996198]}, "properties": {"amenity": "toilets", "osmId": 289287550, "category": "amenity", "subtype": "toilet"}}, {"type": "Feature", "geometry": {"type": "Point", "coordinates": [172.5698596, -43.5776021]}, "properties": {"access": "yes", "amenity": "toilets", "unisex": "yes", "wheelchair": "yes", "osmId": 289297164, "category": "amenity", "subtype": "toilet"}}, {"type": "Feature", "geometry": {"type": "Point", "coordinates": [172.5709601, -43.5718258]}, "properties": {"amenity": "fuel", "brand": "BP", "brand:wikidata": "Q152057", "brand:wikipedia": "en:BP", "name": "BP Petrol Station Halswell Road", "osmId": 289302342, "category": "amenity", "subtype": "fuel"}}, {"type": "Feature", "geometry": {"type": "Point", "coordinates": [172.0246423, -43.7565341]}, "properties": {"addr:city": "Rakaia", "addr:postcode": "7710", "addr:street": "Bridge Street", "amenity": "fuel", "atm": "yes", "atm:network": "next", "brand": "Mobil", "brand:wikidata": "Q109676002", "brand:wikipedia": "en:Mobil", "check_date": "2024-07-03", "fuel:diesel": "yes", "fuel:octane_91": "yes", "fuel:octane_95": "yes", "internet_access": "wlan", "name": "Mobil", "opening_hours": "Mo-Su 06:00-23:00", "payment:cash": "yes", "payment:credit_cards": "yes", "phone": "+64 3 302 7040", "osmId": 290090479, "category": "amenity", "subtype": "fuel"}}, {"type": "Feature", "geometry": {"type": "Point", "coordinates": [174.7709407, -41.3432543]}, "properties": {"amenity": "toilets", "wheelchair": "no", "osmId": 290095143, "category": "amenity", "subtype": "toilet"}}, {"type": "Feature", "geometry": {"type": "Point", "coordinates": [175.797397, -39.6783686]}, "properties": {"amenity": "toilets", "fee": "no", "wheelchair": "yes", "osmId": 290312463, "category": "amenity", "subtype": "toilet"}}, {"type": "Feature", "geometry": {"type": "Point", "coordinates": [172.5811536, -43.59911]}, "properties": {"amenity": "toilets", "osmId": 290348157, "category": "amenity", "subtype": "toilet"}}, {"type": "Feature", "geometry": {"type": "Point", "coordinates": [172.534037, -43.5564067]}, "properties": {"amenity": "toilets", "created_by": "JOSM", "osmId": 290865429, "category": "amenity", "subtype": "toilet"}}, {"type": "Feature", "geometry": {"type": "Point", "coordinates": [172.5580516, -43.6533749]}, "properties": {"amenity": "toilets", "changing_table": "no", "check_date": "2024-02-24", "created_by": "JOSM", "fee": "no", "osmId": 290874371, "category": "amenity", "subtype": "toilet"}}, {"type": "Feature", "geometry": {"type": "Point", "coordinates": [172.4677093, -43.4651331]}, "properties": {"amenity": "toilets", "layer": "2", "osmId": 291166666, "category": "amenity", "subtype": "toilet"}}, {"type": "Feature", "geometry": {"type": "Point", "coordinates": [172.051019, -43.3606866]}, "properties": {"amenity": "toilets", "osmId": 291987656, "category": "amenity", "subtype": "toilet"}}, {"type": "Feature", "geometry": {"type": "Point", "coordinates": [171.7311525, -43.1514649]}, "properties": {"amenity": "toilets", "changing_table": "no", "fee": "no", "opening_hours": "24/7", "toilets:disposal": "pitlatrine", "unisex": "yes", "osmId": 291991536, "category": "amenity", "subtype": "toilet"}}, {"type": "Feature", "geometry": {"type": "Point", "coordinates": [174.7823219, -41.31973]}, "properties": {"amenity": "toilets", "changing_table": "yes", "created_by": "Potlatch 0.10b", "fee": "no", "wheelchair": "yes", "osmId": 292202961, "category": "amenity", "subtype": "toilet"}}, {"type": "Feature", "geometry": {"type": "Point", "coordinates": [172.6434195, -43.5975902]}, "properties": {"amenity": "drinking_water", "osmId": 292508363, "category": "amenity", "subtype": "water"}}, {"type": "Feature", "geometry": {"type": "Point", "coordinates": [172.5347836, -43.5199871]}, "properties": {"addr:city": "Christchurch", "addr:country": "NZ", "addr:housenumber": "2", "addr:postcode": "8042", "addr:street": "Russley Road", "amenity": "fuel", "branch": "Russley", "brand": "Z", "brand:wikidata": "Q8063337", "brand:wikipedia": "en:Z Energy", "name": "Z", "opening_hours": "24/7", "website": "https://www.z.co.nz/find-a-station/station/z-russley/", "osmId": 292803115, "category": "amenity", "subtype": "fuel"}}, {"type": "Feature", "geometry": {"type": "Point", "coordinates": [171.7068625, -43.9239301]}, "properties": {"amenity": "toilets", "osmId": 293130896, "category": "amenity", "subtype": "toilet"}}, {"type": "Feature", "geometry": {"type": "Point", "coordinates": [172.7589844, -43.7898822]}, "properties": {"amenity": "toilets", "osmId": 293616683, "category": "amenity", "subtype": "toilet"}}, {"type": "Feature", "geometry": {"type": "Point", "coordinates": [172.7902138, -43.7706292]}, "properties": {"amenity": "toilets", "created_by": "JOSM", "fee": "no", "wheelchair": "no", "osmId": 293616812, "category": "amenity", "subtype": "toilet"}}, {"type": "Feature", "geometry": {"type": "Point", "coordinates": [172.6554979, -43.7817914]}, "properties": {"amenity": "toilets", "created_by": "JOSM", "osmId": 293622899, "category": "amenity", "subtype": "toilet"}}, {"type": "Feature", "geometry": {"type": "Point", "coordinates": [172.5839246, -43.7290752]}, "properties": {"amenity": "toilets", "created_by": "JOSM", "layer": "1", "osmId": 293627102, "category": "amenity", "subtype": "toilet"}}, {"type": "Feature", "geometry": {"type": "Point", "coordinates": [172.5914577, -43.7299883]}, "properties": {"amenity": "toilets", "osmId": 293627107, "category": "amenity", "subtype": "toilet"}}, {"type": "Feature", "geometry": {"type": "Point", "coordinates": [172.649438, -43.7738929]}, "properties": {"amenity": "toilets", "osmId": 293627158, "category": "amenity", "subtype": "toilet"}}, {"type": "Feature", "geometry": {"type": "Point", "coordinates": [172.1051569, -43.4854681]}, "properties": {"amenity": "toilets", "osmId": 293647626, "category": "amenity", "subtype": "toilet"}}, {"type": "Feature", "geometry": {"type": "Point", "coordinates": [174.7928302, -41.298067]}, "properties": {"access": "yes", "amenity": "toilets", "fee": "no", "female": "yes", "male": "yes", "unisex": "yes", "wheelchair": "yes", "osmId": 294438566, "category": "amenity", "subtype": "toilet"}}, {"type": "Feature", "geometry": {"type": "Point", "coordinates": [172.8471413, -42.7756521]}, "properties": {"amenity": "fuel", "branch": "Culverden", "brand": "Challenge", "brand:wikidata": "Q5068888", "fuel:diesel": "yes", "fuel:octane_91": "yes", "fuel:octane_95": "yes", "name": "Challenge", "osmId": 294513765, "category": "amenity", "subtype": "fuel"}}, {"type": "Feature", "geometry": {"type": "Point", "coordinates": [172.0147448, -43.7491894]}, "properties": {"amenity": "toilets", "osmId": 295302615, "category": "amenity", "subtype": "toilet"}}, {"type": "Feature", "geometry": {"type": "Point", "coordinates": [172.3628572, -43.7051078]}, "properties": {"amenity": "toilets", "osmId": 295314763, "category": "amenity", "subtype": "toilet"}}, {"type": "Feature", "geometry": {"type": "Point", "coordinates": [172.4696185, -43.5511345]}, "properties": {"amenity": "toilets", "osmId": 295327085, "category": "amenity", "subtype": "toilet"}}, {"type": "Feature", "geometry": {"type": "Point", "coordinates": [172.7402193, -43.5651362]}, "properties": {"access": "yes", "amenity": "toilets", "toilets:disposal": "flush", "osmId": 297831677, "category": "amenity", "subtype": "toilet"}}, {"type": "Feature", "geometry": {"type": "Point", "coordinates": [174.768202, -41.2985669]}, "properties": {"access": "yes", "amenity": "drinking_water", "description": "Drinking fountain at the main entrance beside the water feature. Has fountain, bottle filler, tap & dog bowl.", "fountain": "bubbler", "operator": "Wellington City Council", "operator:wikidata": "Q601800", "ref:wcc:asset_number": "20002062", "osmId": 298578043, "category": "amenity", "subtype": "water"}}, {"type": "Feature", "geometry": {"type": "Point", "coordinates": [174.7497294, -36.9262026]}, "properties": {"amenity": "fuel", "brand": "BP", "brand:wikidata": "Q152057", "name": "BP", "operator": "BP", "osmId": 299924947, "category": "amenity", "subtype": "fuel"}}, {"type": "Feature", "geometry": {"type": "Point", "coordinates": [174.7653285, -41.3047496]}, "properties": {"amenity": "toilets", "check_date": "2022-01-07", "fee": "no", "wheelchair": "yes", "osmId": 300204268, "category": "amenity", "subtype": "toilet"}}, {"type": "Feature", "geometry": {"type": "Point", "coordinates": [172.7783036, -43.1740111]}, "properties": {"amenity": "toilets", "osmId": 300526256, "category": "amenity", "subtype": "toilet"}}, {"type": "Feature", "geometry": {"type": "Point", "coordinates": [174.7802599, -41.3134366]}, "properties": {"access": "yes", "amenity": "toilets", "fee": "no", "wheelchair": "yes", "osmId": 301920046, "category": "amenity", "subtype": "toilet"}}, {"type": "Feature", "geometry": {"type": "Point", "coordinates": [172.6246777, -43.6325619]}, "properties": {"amenity": "toilets", "osmId": 301931367, "category": "amenity", "subtype": "toilet"}}, {"type": "Feature", "geometry": {"type": "Point", "coordinates": [170.4720854, -45.8724414]}, "properties": {"addr:city": "Dunedin", "addr:housenumber": "248", "addr:street": "Kaikorai Valley Road", "addr:suburb": "Bradford", "amenity": "fuel", "branch": "Valley", "brand": "Z", "brand:wikidata": "Q8063337", "fuel:diesel": "yes", "fuel:lpg": "yes", "fuel:octane_91": "yes", "name": "Z", "opening_hours": "24/7", "ref:linz:address_id": "32461", "sanitary_dump_station": "yes", "website": "https://www.z.co.nz/find-a-station/station/z-valley/", "osmId": 302212961, "category": "amenity", "subtype": "fuel"}}, {"type": "Feature", "geometry": {"type": "Point", "coordinates": [172.7382437, -43.1910018]}, "properties": {"amenity": "toilets", "osmId": 302260829, "category": "amenity", "subtype": "toilet"}}, {"type": "Feature", "geometry": {"type": "Point", "coordinates": [172.2938816, -43.7653501]}, "properties": {"amenity": "toilets", "osmId": 303020335, "category": "amenity", "subtype": "toilet"}}, {"type": "Feature", "geometry": {"type": "Point", "coordinates": [172.2991876, -43.76207]}, "properties": {"amenity": "toilets", "created_by": "JOSM", "osmId": 303020363, "category": "amenity", "subtype": "toilet"}}, {"type": "Feature", "geometry": {"type": "Point", "coordinates": [174.7658313, -41.2816049]}, "properties": {"amenity": "toilets", "changing_table": "yes", "check_date": "2026-01-07", "fee": "no", "osmId": 307350001, "category": "amenity", "subtype": "toilet"}}, {"type": "Feature", "geometry": {"type": "Point", "coordinates": [172.9091007, -43.7767793]}, "properties": {"amenity": "toilets", "osmId": 307352599, "category": "amenity", "subtype": "toilet"}}, {"type": "Feature", "geometry": {"type": "Point", "coordinates": [171.9289237, -43.3379122]}, "properties": {"access": "yes", "amenity": "toilets", "osmId": 307631494, "category": "amenity", "subtype": "toilet"}}, {"type": "Feature", "geometry": {"type": "Point", "coordinates": [172.1133492, -43.4897899]}, "properties": {"access": "yes", "amenity": "toilets", "check_date": "2024-07-04", "fee": "no", "wheelchair": "yes", "osmId": 307631496, "category": "amenity", "subtype": "toilet"}}, {"type": "Feature", "geometry": {"type": "Point", "coordinates": [170.9694275, -42.7139535]}, "properties": {"name": "Coaster's Supermarket", "shop": "supermarket", "osmId": 308172421, "category": "amenity", "subtype": "shop"}}, {"type": "Feature", "geometry": {"type": "Point", "coordinates": [174.8553412, -36.8508374]}, "properties": {"amenity": "toilets", "fee": "no", "wheelchair": "yes", "osmId": 310951505, "category": "amenity", "subtype": "toilet"}}, {"type": "Feature", "geometry": {"type": "Point", "coordinates": [174.8596808, -36.8493942]}, "properties": {"amenity": "toilets", "wheelchair": "yes", "osmId": 310951806, "category": "amenity", "subtype": "toilet"}}, {"type": "Feature", "geometry": {"type": "Point", "coordinates": [171.8013934, -41.7422027]}, "properties": {"amenity": "toilets", "created_by": "Potlatch 0.10f", "osmId": 313829235, "category": "amenity", "subtype": "toilet"}}, {"type": "Feature", "geometry": {"type": "Point", "coordinates": [172.577621, -43.5599826]}, "properties": {"amenity": "drinking_water", "osmId": 314077309, "category": "amenity", "subtype": "water"}}, {"type": "Feature", "geometry": {"type": "Point", "coordinates": [171.9424621, -43.3431278]}, "properties": {"amenity": "toilets", "osmId": 316414272, "category": "amenity", "subtype": "toilet"}}, {"type": "Feature", "geometry": {"type": "Point", "coordinates": [172.2275002, -43.2284305]}, "properties": {"amenity": "toilets", "check_date": "2025-01-12", "check_date:wheelchair": "2025-01-12", "fee": "no", "wheelchair": "yes", "osmId": 317846596, "category": "amenity", "subtype": "toilet"}}, {"type": "Feature", "geometry": {"type": "Point", "coordinates": [174.9817188, -41.1616277]}, "properties": {"amenity": "fuel", "brand": "Caltex", "brand:wikidata": "Q277470", "brand:wikipedia": "en:Caltex", "compressed_air": "yes", "fuel:diesel": "yes", "fuel:lpg": "yes", "fuel:octane_91": "yes", "fuel:octane_95": "yes", "name": "Caltex Stokes Valley", "osmId": 318873937, "category": "amenity", "subtype": "fuel"}}, {"type": "Feature", "geometry": {"type": "Point", "coordinates": [172.6491859, -43.4117281]}, "properties": {"amenity": "toilets", "osmId": 319469366, "category": "amenity", "subtype": "toilet"}}, {"type": "Feature", "geometry": {"type": "Point", "coordinates": [173.007585, -41.009411]}, "properties": {"amenity": "toilets", "fee": "no", "osmId": 319844464, "category": "amenity", "subtype": "toilet"}}, {"type": "Feature", "geometry": {"type": "Point", "coordinates": [172.8072553, -40.8565106]}, "properties": {"amenity": "fuel", "brand": "Z", "brand:wikidata": "Q8063337", "brand:wikipedia": "en:Z Energy", "name": "Z Energy Truck Stop", "website": "https://www.z.co.nz/find-a-station/station/z-takaka-truck-stop/", "osmId": 320471406, "category": "amenity", "subtype": "fuel"}}, {"type": "Feature", "geometry": {"type": "Point", "coordinates": [167.8794533, -44.8841853]}, "properties": {"amenity": "toilets", "osmId": 321537013, "category": "amenity", "subtype": "toilet"}}, {"type": "Feature", "geometry": {"type": "Point", "coordinates": [172.9971523, -41.0851732]}, "properties": {"amenity": "fuel", "brand": "Challenge", "brand:wikidata": "Q5068888", "compressed_air": "yes", "fuel:diesel": "yes", "fuel:octane_91": "yes", "fuel:octane_95": "yes", "name": "Challenge", "osmId": 321543320, "category": "amenity", "subtype": "fuel"}}, {"type": "Feature", "geometry": {"type": "Point", "coordinates": [173.0119362, -41.1154151]}, "properties": {"amenity": "toilets", "fee": "no", "osmId": 321543751, "category": "amenity", "subtype": "toilet"}}, {"type": "Feature", "geometry": {"type": "Point", "coordinates": [173.0065881, -41.2690302]}, "properties": {"amenity": "fuel", "brand": "Southfuels", "name": "Southfuels", "osmId": 321952659, "category": "amenity", "subtype": "fuel"}}, {"type": "Feature", "geometry": {"type": "Point", "coordinates": [169.9124971, -45.0069198]}, "properties": {"amenity": "toilets", "check_date": "2025-03", "osmId": 322000561, "category": "amenity", "subtype": "toilet"}}, {"type": "Feature", "geometry": {"type": "Point", "coordinates": [172.6602391, -43.5606909]}, "properties": {"amenity": "toilets", "fee": "no", "male": "yes", "wheelchair": "yes", "osmId": 322393325, "category": "amenity", "subtype": "toilet"}}, {"type": "Feature", "geometry": {"type": "Point", "coordinates": [172.6640017, -43.5630653]}, "properties": {"amenity": "toilets", "female": "yes", "wheelchair": "no", "osmId": 322394608, "category": "amenity", "subtype": "toilet"}}, {"type": "Feature", "geometry": {"type": "Point", "coordinates": [174.0063956, -41.2920556]}, "properties": {"amenity": "fuel", "brand": "Z", "brand:wikidata": "Q8063337", "brand:wikipedia": "en:Z Energy", "check_date": "2023-06-30", "fuel:diesel": "yes", "fuel:octane_91": "yes", "fuel:octane_95": "yes", "name": "Z", "opening_hours": "24/7", "operator": "Z", "website": "https://www.z.co.nz/find-a-station/station/z-picton/", "osmId": 322413851, "category": "amenity", "subtype": "fuel"}}, {"type": "Feature", "geometry": {"type": "Point", "coordinates": [173.9302042, -41.5096025]}, "properties": {"addr:city": "Blenheim", "addr:housenumber": "165", "addr:street": "Middle Renwick Road", "amenity": "fuel", "branch": "Springlands", "brand": "Z", "brand:wikidata": "Q8063337", "fuel:diesel": "yes", "fuel:octane_91": "yes", "fuel:octane_95": "yes", "name": "Z", "website": "https://www.z.co.nz/find-a-station/station/z-springlands/", "osmId": 322700900, "category": "amenity", "subtype": "fuel"}}, {"type": "Feature", "geometry": {"type": "Point", "coordinates": [174.9047519, -41.2758487]}, "properties": {"amenity": "fuel", "brand": "Challenge", "brand:wikidata": "Q5068888", "fuel:diesel": "yes", "fuel:octane_91": "yes", "fuel:octane_95": "yes", "name": "Sunshine Bay Service Station", "operator": "Challenge", "self_service": "yes", "osmId": 322732790, "category": "amenity", "subtype": "fuel"}}, {"type": "Feature", "geometry": {"type": "Point", "coordinates": [173.0107345, -41.1140146]}, "properties": {"amenity": "fuel", "brand": "Caltex", "brand:wikidata": "Q277470", "brand:wikipedia": "en:Caltex", "name": "Caltex", "opening_hours": "24/7", "operator": "Shell", "osmId": 322781815, "category": "amenity", "subtype": "fuel"}}, {"type": "Feature", "geometry": {"type": "Point", "coordinates": [172.6406778, -42.922135]}, "properties": {"amenity": "toilets", "osmId": 323660004, "category": "amenity", "subtype": "toilet"}}, {"type": "Feature", "geometry": {"type": "Point", "coordinates": [172.8218025, -42.5194193]}, "properties": {"amenity": "toilets", "osmId": 323682352, "category": "amenity", "subtype": "toilet"}}, {"type": "Feature", "geometry": {"type": "Point", "coordinates": [174.0064945, -41.2885236]}, "properties": {"access": "yes", "amenity": "toilets", "changing_table": "yes", "check_date": "2024-09-12", "fee": "no", "toilets:handwashing": "yes", "wheelchair": "yes", "osmId": 324206501, "category": "amenity", "subtype": "toilet"}}, {"type": "Feature", "geometry": {"type": "Point", "coordinates": [174.0108465, -41.2855341]}, "properties": {"amenity": "toilets", "osmId": 324207375, "category": "amenity", "subtype": "toilet"}}, {"type": "Feature", "geometry": {"type": "Point", "coordinates": [172.8233966, -41.8368334]}, "properties": {"amenity": "toilets", "osmId": 324699037, "category": "amenity", "subtype": "toilet"}}, {"type": "Feature", "geometry": {"type": "Point", "coordinates": [172.3249522, -41.7998688]}, "properties": {"amenity": "fuel", "brand": "Mobil", "brand:wikidata": "Q109676002", "brand:wikipedia": "en:Mobil", "fuel:HGV_diesel": "yes", "fuel:diesel": "yes", "fuel:lpg": "yes", "fuel:octane_91": "yes", "fuel:octane_95": "yes", "name": "Mobil", "operator": "Mobil", "osmId": 324704622, "category": "amenity", "subtype": "fuel"}}, {"type": "Feature", "geometry": {"type": "Point", "coordinates": [174.9642551, -37.053789]}, "properties": {"name": "Keri Hills Superette", "shop": "convenience", "osmId": 326792259, "category": "amenity", "subtype": "shop"}}, {"type": "Feature", "geometry": {"type": "Point", "coordinates": [174.1447581, -39.1452494]}, "properties": {"amenity": "fuel", "fuel:diesel": "yes", "fuel:octane_91": "yes", "fuel:octane_95": "yes", "name:en": "Fuelling Egmont Village", "osmId": 327127225, "category": "amenity", "subtype": "fuel"}}, {"type": "Feature", "geometry": {"type": "Point", "coordinates": [174.8067223, -41.2262212]}, "properties": {"amenity": "fuel", "brand": "Z", "brand:wikidata": "Q8063337", "brand:wikipedia": "en:Z Energy", "fuel:diesel": "yes", "fuel:octane_91": "yes", "fuel:octane_95": "yes", "name": "Z Johnsonville", "website": "https://www.z.co.nz/find-a-station/station/z-johnsonville/", "osmId": 331132009, "category": "amenity", "subtype": "fuel"}}, {"type": "Feature", "geometry": {"type": "Point", "coordinates": [175.4022902, -39.1769646]}, "properties": {"amenity": "fuel", "branch": "National Park", "brand": "G.A.S.", "brand:wikidata": "Q112189761", "compressed_air": "yes", "fuel:diesel": "yes", "fuel:octane_91": "yes", "fuel:octane_95": "yes", "name": "G.A.S.", "official_name": "GAS National Park", "opening_hours": "Mo-Su 07:00-19:00", "opening_hours:self_service": "24/7", "phone": "+64 7 892 2879", "osmId": 331370967, "category": "amenity", "subtype": "fuel"}}, {"type": "Feature", "geometry": {"type": "Point", "coordinates": [175.0607551, -41.1251988]}, "properties": {"amenity": "fuel", "brand": "Caltex", "brand:wikidata": "Q277470", "brand:wikipedia": "en:Caltex", "fuel:diesel": "yes", "fuel:lpg": "yes", "fuel:octane_91": "yes", "fuel:octane_95": "yes", "name": "Caltex", "osmId": 333279576, "category": "amenity", "subtype": "fuel"}}, {"type": "Feature", "geometry": {"type": "Point", "coordinates": [175.0757798, -41.1235406]}, "properties": {"amenity": "fuel", "brand": "BP", "brand:wikidata": "Q152057", "brand:wikipedia": "en:BP", "fuel:diesel": "yes", "fuel:octane_91": "yes", "fuel:octane_95": "no", "fuel:octane_98": "yes", "name": "BP", "osmId": 333283865, "category": "amenity", "subtype": "fuel"}}, {"type": "Feature", "geometry": {"type": "Point", "coordinates": [172.6022568, -43.5562369]}, "properties": {"amenity": "toilets", "osmId": 335623055, "category": "amenity", "subtype": "toilet"}}, {"type": "Feature", "geometry": {"type": "Point", "coordinates": [173.9542831, -41.5136714]}, "properties": {"access": "yes", "amenity": "toilets", "fee": "no", "toilets:disposal": "flush", "toilets:position": "seated", "unisex": "yes", "wheelchair": "yes", "osmId": 335638700, "category": "amenity", "subtype": "toilet"}}, {"type": "Feature", "geometry": {"type": "Point", "coordinates": [173.9580556, -41.5119129]}, "properties": {"amenity": "toilets", "changing_table": "no", "check_date": "2025-02-10", "fee": "no", "wheelchair": "yes", "osmId": 335638740, "category": "amenity", "subtype": "toilet"}}, {"type": "Feature", "geometry": {"type": "Point", "coordinates": [173.9538195, -41.5109169]}, "properties": {"amenity": "toilets", "check_date": "2023-01-20", "fee": "no", "wheelchair": "yes", "osmId": 335638777, "category": "amenity", "subtype": "toilet"}}, {"type": "Feature", "geometry": {"type": "Point", "coordinates": [173.9505726, -41.5062584]}, "properties": {"amenity": "toilets", "changing_table": "yes", "fee": "no", "wheelchair": "yes", "osmId": 335638837, "category": "amenity", "subtype": "toilet"}}, {"type": "Feature", "geometry": {"type": "Point", "coordinates": [168.3843209, -44.8500655]}, "properties": {"amenity": "fuel", "name": "Glenorchy Motors Petrol", "osmId": 337435082, "category": "amenity", "subtype": "fuel"}}, {"type": "Feature", "geometry": {"type": "Point", "coordinates": [172.1286705, -41.2511358]}, "properties": {"amenity": "fuel", "brand": "Allied Petroleum", "brand:wikidata": "Q112543637", "name": "Allied", "operator": "Allied Petroleum", "osmId": 339510595, "category": "amenity", "subtype": "fuel"}}, {"type": "Feature", "geometry": {"type": "Point", "coordinates": [172.1024547, -41.1090408]}, "properties": {"amenity": "toilets", "created_by": "Potlatch 0.10f", "osmId": 339516379, "category": "amenity", "subtype": "toilet"}}, {"type": "Feature", "geometry": {"type": "Point", "coordinates": [173.5828208, -41.2279364]}, "properties": {"amenity": "fuel", "brand": "BP", "brand:wikidata": "Q152057", "fuel:diesel": "yes", "fuel:octane_91": "yes", "name": "BP", "self_service": "yes", "osmId": 340186346, "category": "amenity", "subtype": "fuel"}}, {"type": "Feature", "geometry": {"type": "Point", "coordinates": [172.639502, -43.5713315]}, "properties": {"amenity": "toilets", "created_by": "Potlatch 0.10f", "osmId": 340320380, "category": "amenity", "subtype": "toilet"}}, {"type": "Feature", "geometry": {"type": "Point", "coordinates": [172.6732453, -43.5607552]}, "properties": {"amenity": "toilets", "osmId": 340321649, "category": "amenity", "subtype": "toilet"}}, {"type": "Feature", "geometry": {"type": "Point", "coordinates": [171.4420469, -43.6527904]}, "properties": {"amenity": "cafe", "changing_table": "yes", "check_date": "2024-10-22", "internet_access": "wlan", "internet_access:fee": "customers", "name": "Stavely Caf\u00e9 and Sundry Goods Store", "opening_hours": "09:00-15:00", "outdoor_seating": "yes", "shop": "convenience", "start_date": "1876", "takeaway": "yes", "toilets": "yes", "wheelchair": "yes", "osmId": 348240915, "category": "amenity", "subtype": "shop"}}, {"type": "Feature", "geometry": {"type": "Point", "coordinates": [170.1807301, -44.5725865]}, "properties": {"amenity": "toilets", "osmId": 348328894, "category": "amenity", "subtype": "toilet"}}, {"type": "Feature", "geometry": {"type": "Point", "coordinates": [170.8177368, -45.3238483]}, "properties": {"amenity": "fuel", "brand": "G.A.S.", "brand:wikidata": "Q112189761", "name": "G.A.S.", "osmId": 354617444, "category": "amenity", "subtype": "fuel"}}, {"type": "Feature", "geometry": {"type": "Point", "coordinates": [169.2033065, -44.2649813]}, "properties": {"amenity": "fuel", "check_date": "2025-02-20", "fuel:diesel": "yes", "fuel:octane_91": "yes", "name": "RD Petroleum", "opening_hours": "24/7", "operator": "Makaroa Country Cafe", "osmId": 354685650, "category": "amenity", "subtype": "fuel"}}, {"type": "Feature", "geometry": {"type": "Point", "coordinates": [177.0327469, -38.7441982]}, "properties": {"amenity": "shelter", "osmId": 355343450, "category": "amenity", "subtype": "shelter"}}, {"type": "Feature", "geometry": {"type": "Point", "coordinates": [170.9611436, -42.7188096]}, "properties": {"access": "yes", "amenity": "toilets", "check_date": "2025-02-25", "fee": "no", "toilets:disposal": "flush", "osmId": 356034122, "category": "amenity", "subtype": "toilet"}}, {"type": "Feature", "geometry": {"type": "Point", "coordinates": [171.8179166, -42.2939144]}, "properties": {"amenity": "toilets", "osmId": 356428436, "category": "amenity", "subtype": "toilet"}}, {"type": "Feature", "geometry": {"type": "Point", "coordinates": [174.7758528, -41.2846812]}, "properties": {"amenity": "toilets", "changing_table": "yes", "fee": "no", "shower": "yes", "toilets:disposal": "flush", "wheelchair": "yes", "osmId": 356515497, "category": "amenity", "subtype": "toilet"}}, {"type": "Feature", "geometry": {"type": "Point", "coordinates": [175.5304659, -41.021441]}, "properties": {"amenity": "fuel", "brand": "Mobil", "brand:wikidata": "Q109676002", "brand:wikipedia": "en:Mobil", "compressed_air": "yes", "fuel:HGV_diesel": "yes", "fuel:diesel": "yes", "fuel:lpg": "yes", "fuel:octane_91": "yes", "fuel:octane_95": "yes", "name": "Mobil", "operator": "Mobil", "osmId": 357134403, "category": "amenity", "subtype": "fuel"}}, {"type": "Feature", "geometry": {"type": "Point", "coordinates": [176.1907068, -40.5426212]}, "properties": {"amenity": "cafe", "name": "Pongaroa Cafe & General Store", "shop": "convenience", "osmId": 357152961, "category": "amenity", "subtype": "shop"}}, {"type": "Feature", "geometry": {"type": "Point", "coordinates": [176.5572336, -40.4928003]}, "properties": {"amenity": "toilets", "osmId": 357173644, "category": "amenity", "subtype": "toilet"}}, {"type": "Feature", "geometry": {"type": "Point", "coordinates": [176.552235, -39.9942357]}, "properties": {"amenity": "toilets", "osmId": 357192212, "category": "amenity", "subtype": "toilet"}}, {"type": "Feature", "geometry": {"type": "Point", "coordinates": [176.5572242, -39.9948254]}, "properties": {"amenity": "fuel", "brand": "Caltex", "brand:wikidata": "Q277470", "brand:wikipedia": "en:Caltex", "name": "Caltex", "osmId": 357192216, "category": "amenity", "subtype": "fuel"}}, {"type": "Feature", "geometry": {"type": "Point", "coordinates": [173.0458747, -40.9473209]}, "properties": {"amenity": "toilets", "osmId": 360305264, "category": "amenity", "subtype": "toilet"}}, {"type": "Feature", "geometry": {"type": "Point", "coordinates": [174.2341581, -41.0943329]}, "properties": {"amenity": "toilets", "fee": "no", "operator": "Department of Conservation", "osmId": 365634516, "category": "amenity", "subtype": "toilet"}}, {"type": "Feature", "geometry": {"type": "Point", "coordinates": [172.6450363, -43.5948127]}, "properties": {"amenity": "drinking_water", "osmId": 370223158, "category": "amenity", "subtype": "water"}}, {"type": "Feature", "geometry": {"type": "Point", "coordinates": [172.6050248, -43.5754989]}, "properties": {"amenity": "drinking_water", "osmId": 370223657, "category": "amenity", "subtype": "water"}}, {"type": "Feature", "geometry": {"type": "Point", "coordinates": [172.60396, -43.5804694]}, "properties": {"amenity": "drinking_water", "osmId": 370223659, "category": "amenity", "subtype": "water"}}, {"type": "Feature", "geometry": {"type": "Point", "coordinates": [172.5800142, -43.601544]}, "properties": {"amenity": "drinking_water", "osmId": 370223854, "category": "amenity", "subtype": "water"}}, {"type": "Feature", "geometry": {"type": "Point", "coordinates": [172.580956, -43.5990687]}, "properties": {"amenity": "drinking_water", "osmId": 370223857, "category": "amenity", "subtype": "water"}}, {"type": "Feature", "geometry": {"type": "Point", "coordinates": [172.5693969, -43.5790766]}, "properties": {"amenity": "drinking_water", "osmId": 371151936, "category": "amenity", "subtype": "water"}}, {"type": "Feature", "geometry": {"type": "Point", "coordinates": [172.5735633, -43.5787364]}, "properties": {"amenity": "drinking_water", "bottle": "yes", "dog": "no", "fountain": "bubbler", "operator": "Christchurch City Council", "operator:wikidata": "Q5109064", "osmId": 371151988, "category": "amenity", "subtype": "water"}}, {"type": "Feature", "geometry": {"type": "Point", "coordinates": [172.5210919, -43.5436145]}, "properties": {"amenity": "toilets", "osmId": 384257645, "category": "amenity", "subtype": "toilet"}}, {"type": "Feature", "geometry": {"type": "Point", "coordinates": [172.5774025, -43.5995838]}, "properties": {"amenity": "drinking_water", "osmId": 384257650, "category": "amenity", "subtype": "water"}}, {"type": "Feature", "geometry": {"type": "Point", "coordinates": [172.5795017, -43.597422]}, "properties": {"access": "yes", "amenity": "drinking_water", "bottle": "yes", "fee": "no", "osmId": 384257653, "category": "amenity", "subtype": "water"}}, {"type": "Feature", "geometry": {"type": "Point", "coordinates": [172.8920142, -40.9429997]}, "properties": {"amenity": "toilets", "opening_hours": "24/7", "operator": "Department of Conservation", "toilets:disposal": "pitlatrine", "osmId": 385015106, "category": "amenity", "subtype": "toilet"}}, {"type": "Feature", "geometry": {"type": "Point", "coordinates": [172.7648206, -43.0475834]}, "properties": {"amenity": "toilets", "osmId": 385616744, "category": "amenity", "subtype": "toilet"}}, {"type": "Feature", "geometry": {"type": "Point", "coordinates": [172.7205238, -43.150078]}, "properties": {"amenity": "toilets", "name": "Amberley domain toilets", "osmId": 385619621, "category": "amenity", "subtype": "toilet"}}, {"type": "Feature", "geometry": {"type": "Point", "coordinates": [172.578651, -43.5809086]}, "properties": {"amenity": "drinking_water", "osmId": 387992272, "category": "amenity", "subtype": "water"}}, {"type": "Feature", "geometry": {"type": "Point", "coordinates": [172.64475, -43.5926065]}, "properties": {"amenity": "drinking_water", "bottle": "yes", "dog": "no", "operator": "Christchurch City Council", "operator:wikidata": "Q5109064", "osmId": 390662197, "category": "amenity", "subtype": "water"}}, {"type": "Feature", "geometry": {"type": "Point", "coordinates": [172.6430991, -43.5897748]}, "properties": {"access": "yes", "amenity": "drinking_water", "fee": "no", "osmId": 390662215, "category": "amenity", "subtype": "water"}}, {"type": "Feature", "geometry": {"type": "Point", "coordinates": [172.2507092, -43.811158]}, "properties": {"amenity": "toilets", "osmId": 391681215, "category": "amenity", "subtype": "toilet"}}, {"type": "Feature", "geometry": {"type": "Point", "coordinates": [171.2422042, -44.3744084]}, "properties": {"amenity": "fuel", "brand": "BP", "brand:wikidata": "Q152057", "brand:wikipedia": "en:BP", "name": "BP Showgrounds", "operator": "BP", "osmId": 394139263, "category": "amenity", "subtype": "fuel"}}, {"type": "Feature", "geometry": {"type": "Point", "coordinates": [171.2181302, -44.3893759]}, "properties": {"amenity": "fuel", "brand": "BP", "brand:wikidata": "Q152057", "fuel:diesel": "yes", "fuel:octane_91": "yes", "fuel:octane_95": "yes", "name": "BP 2go Highfield", "operator": "BP", "osmId": 394139266, "category": "amenity", "subtype": "fuel"}}, {"type": "Feature", "geometry": {"type": "Point", "coordinates": [171.2481992, -44.4129077]}, "properties": {"amenity": "fuel", "brand": "Caltex", "brand:wikidata": "Q277470", "brand:wikipedia": "en:Caltex", "name": "Caltex", "wheelchair": "yes", "osmId": 394168085, "category": "amenity", "subtype": "fuel"}}, {"type": "Feature", "geometry": {"type": "Point", "coordinates": [171.2511691, -44.3919772]}, "properties": {"amenity": "toilets", "check_date": "2023-01-17", "fee": "no", "wheelchair": "yes", "osmId": 395239807, "category": "amenity", "subtype": "toilet"}}, {"type": "Feature", "geometry": {"type": "Point", "coordinates": [171.2561444, -44.4011061]}, "properties": {"amenity": "fuel", "brand": "Z", "brand:wikidata": "Q8063337", "brand:wikipedia": "en:Z Energy", "name": "Z Stafford Street", "osmId": 395248167, "category": "amenity", "subtype": "fuel"}}, {"type": "Feature", "geometry": {"type": "Point", "coordinates": [172.6310121, -43.5728998]}, "properties": {"amenity": "drinking_water", "osmId": 401434192, "category": "amenity", "subtype": "water"}}, {"type": "Feature", "geometry": {"type": "Point", "coordinates": [172.6353582, -43.5809806]}, "properties": {"amenity": "drinking_water", "osmId": 401451612, "category": "amenity", "subtype": "water"}}, {"type": "Feature", "geometry": {"type": "Point", "coordinates": [175.5439118, -37.142744]}, "properties": {"brand": "Four Square", "brand:wikidata": "Q5475558", "brand:wikipedia": "en:Four Square (supermarket)", "check_date": "2026-01-31", "name": "Four Square", "shop": "convenience", "wheelchair": "yes", "osmId": 410314896, "category": "amenity", "subtype": "shop"}}, {"type": "Feature", "geometry": {"type": "Point", "coordinates": [175.5450685, -37.1442372]}, "properties": {"amenity": "fuel", "brand": "Gull", "brand:wikidata": "Q111949119", "name": "Gull", "operator": "Gull", "osmId": 410314899, "category": "amenity", "subtype": "fuel"}}, {"type": "Feature", "geometry": {"type": "Point", "coordinates": [175.4709197, -37.8963969]}, "properties": {"amenity": "fuel", "brand": "Waitomo", "brand:wikidata": "Q112569504", "check_date": "2026-01-09", "name": "Waitomo", "name:mi": "Waitomo", "opening_hours": "24/7", "operator": "Waitomo", "payment:cash": "no", "payment:credit_cards": "yes", "payment:debit_cards": "yes", "osmId": 410350028, "category": "amenity", "subtype": "fuel"}}, {"type": "Feature", "geometry": {"type": "Point", "coordinates": [171.5892845, -43.0018922]}, "properties": {"amenity": "toilets", "osmId": 411169101, "category": "amenity", "subtype": "toilet"}}, {"type": "Feature", "geometry": {"type": "Point", "coordinates": [171.2053654, -44.3883947]}, "properties": {"amenity": "fuel", "brand": "Challenge", "brand:wikidata": "Q5068888", "name": "Gleniti Auto", "operator": "Challenge", "osmId": 411194382, "category": "amenity", "subtype": "fuel"}}, {"type": "Feature", "geometry": {"type": "Point", "coordinates": [172.3682007, -43.5259972]}, "properties": {"amenity": "toilets", "osmId": 412425384, "category": "amenity", "subtype": "toilet"}}, {"type": "Feature", "geometry": {"type": "Point", "coordinates": [172.369561, -43.526635]}, "properties": {"amenity": "toilets", "osmId": 412425385, "category": "amenity", "subtype": "toilet"}}, {"type": "Feature", "geometry": {"type": "Point", "coordinates": [172.3689983, -43.5273395]}, "properties": {"amenity": "drinking_water", "osmId": 412425386, "category": "amenity", "subtype": "water"}}, {"type": "Feature", "geometry": {"type": "Point", "coordinates": [172.6437026, -43.5906854]}, "properties": {"access": "yes", "amenity": "toilets", "changing_table": "no", "check_date": "2024-10-12", "fee": "no", "toilets:disposal": "flush", "toilets:handwashing": "yes", "toilets:position": "urinal;seated", "osmId": 413899018, "category": "amenity", "subtype": "toilet"}}, {"type": "Feature", "geometry": {"type": "Point", "coordinates": [172.513155, -43.5854686]}, "properties": {"amenity": "drinking_water", "osmId": 414484371, "category": "amenity", "subtype": "water"}}, {"type": "Feature", "geometry": {"type": "Point", "coordinates": [172.5131993, -43.5854299]}, "properties": {"amenity": "toilets", "osmId": 414484376, "category": "amenity", "subtype": "toilet"}}, {"type": "Feature", "geometry": {"type": "Point", "coordinates": [172.5162027, -43.5876672]}, "properties": {"access": "yes", "amenity": "toilets", "toilets:disposal": "flush", "unisex": "yes", "wheelchair": "yes", "osmId": 414484613, "category": "amenity", "subtype": "toilet"}}, {"type": "Feature", "geometry": {"type": "Point", "coordinates": [171.7525498, -43.8979556]}, "properties": {"amenity": "toilets", "osmId": 415924872, "category": "amenity", "subtype": "toilet"}}, {"type": "Feature", "geometry": {"type": "Point", "coordinates": [171.755127, -43.8978812]}, "properties": {"amenity": "toilets", "osmId": 415924873, "category": "amenity", "subtype": "toilet"}}, {"type": "Feature", "geometry": {"type": "Point", "coordinates": [174.7106492, -36.88849]}, "properties": {"amenity": "fuel", "branch": "Mercury", "brand": "BP", "brand:wikidata": "Q152057", "fuel:diesel": "yes", "fuel:octane_91": "yes", "fuel:octane_95": "yes", "fuel:octane_98": "yes", "name": "BP Connect", "official_name": "BP Connect Mercury", "opening_hours": "24/7", "operator": "BP", "phone": "+64 9 815 4540", "osmId": 416783791, "category": "amenity", "subtype": "fuel"}}, {"type": "Feature", "geometry": {"type": "Point", "coordinates": [172.5222491, -43.5392485]}, "properties": {"amenity": "drinking_water", "fee": "no", "osmId": 417266084, "category": "amenity", "subtype": "water"}}, {"type": "Feature", "geometry": {"type": "Point", "coordinates": [172.5215856, -43.5403089]}, "properties": {"amenity": "drinking_water", "osmId": 417266086, "category": "amenity", "subtype": "water"}}, {"type": "Feature", "geometry": {"type": "Point", "coordinates": [172.5211024, -43.5435424]}, "properties": {"amenity": "drinking_water", "osmId": 417266087, "category": "amenity", "subtype": "water"}}, {"type": "Feature", "geometry": {"type": "Point", "coordinates": [174.8173353, -41.2297031]}, "properties": {"amenity": "fuel", "brand": "BP", "brand:wikidata": "Q152057", "brand:wikipedia": "en:BP", "name": "BP Newlands", "name:en": "BP", "operator": "BP", "osmId": 417728663, "category": "amenity", "subtype": "fuel"}}, {"type": "Feature", "geometry": {"type": "Point", "coordinates": [171.225303, -44.3906421]}, "properties": {"access": "yes", "amenity": "toilets", "fee": "no", "female": "yes", "male": "yes", "toilets:disposal": "flush", "toilets:position": "seated;urinal", "osmId": 417746123, "category": "amenity", "subtype": "toilet"}}, {"type": "Feature", "geometry": {"type": "Point", "coordinates": [173.8267432, -41.5071157]}, "properties": {"amenity": "toilets", "osmId": 424576916, "category": "amenity", "subtype": "toilet"}}, {"type": "Feature", "geometry": {"type": "Point", "coordinates": [169.8098864, -43.5733043]}, "properties": {"amenity": "shelter", "shelter_type": "public_transport", "osmId": 427272529, "category": "amenity", "subtype": "shelter"}}, {"type": "Feature", "geometry": {"type": "Point", "coordinates": [172.9062245, -43.8131991]}, "properties": {"amenity": "toilets", "osmId": 430110233, "category": "amenity", "subtype": "toilet"}}, {"type": "Feature", "geometry": {"type": "Point", "coordinates": [174.8283777, -36.8763662]}, "properties": {"brand": "Woolworths", "brand:wikidata": "Q5176845", "name": "Woolworths", "opening_hours": "Mo-Su 07:00-22:00", "operator": "Countdown", "shop": "supermarket", "osmId": 430605689, "category": "amenity", "subtype": "shop"}}, {"type": "Feature", "geometry": {"type": "Point", "coordinates": [172.9296217, -43.7497686]}, "properties": {"amenity": "toilets", "osmId": 435132853, "category": "amenity", "subtype": "toilet"}}, {"type": "Feature", "geometry": {"type": "Point", "coordinates": [174.7038814, -36.8768136]}, "properties": {"addr:street": "Great North Road", "amenity": "fuel", "branch": "Waterview", "brand": "BP", "brand:wikidata": "Q152057", "compressed_air": "yes", "fuel:diesel": "yes", "fuel:octane_91": "yes", "fuel:octane_95": "yes", "name": "BP Connect", "official_name": "BP Connect Waterview", "opening_hours": "24/7", "operator": "BP", "phone": "+64 9 820 7560", "website": "https://map.bp.com/en-NZ/NZ/gas-station/auckland/bp-connect-waterview/0DJ20", "osmId": 436039171, "category": "amenity", "subtype": "fuel"}}, {"type": "Feature", "geometry": {"type": "Point", "coordinates": [175.4696916, -39.179925]}, "properties": {"amenity": "shelter", "osmId": 441520008, "category": "amenity", "subtype": "shelter"}}, {"type": "Feature", "geometry": {"type": "Point", "coordinates": [174.5299403, -36.8994705]}, "properties": {"amenity": "toilets", "osmId": 443522411, "category": "amenity", "subtype": "toilet"}}, {"type": "Feature", "geometry": {"type": "Point", "coordinates": [174.2862748, -35.5979436]}, "properties": {"brand": "Four Square", "brand:wikidata": "Q5475558", "brand:wikipedia": "en:Four Square (supermarket)", "name": "Four Square", "opening_hours": "Mo-Su 07:00-20:00", "shop": "supermarket", "osmId": 444708602, "category": "amenity", "subtype": "shop"}}, {"type": "Feature", "geometry": {"type": "Point", "coordinates": [171.9522211, -43.5310655]}, "properties": {"amenity": "toilets", "name": "Hororata Domain", "osmId": 446100403, "category": "amenity", "subtype": "toilet"}}, {"type": "Feature", "geometry": {"type": "Point", "coordinates": [174.8969994, -41.2900364]}, "properties": {"addr:city": "Lower Hutt", "addr:housenumber": "10", "addr:postcode": "5013", "addr:street": "Oroua Street", "addr:suburb": "Eastbourne", "brand": "Four Square", "brand:wikidata": "Q5475558", "name": "Four Square", "opening_hours": "PH,Mo-Su 08:00-20:00", "ref:linz:address_id": "415712", "shop": "supermarket", "osmId": 448082265, "category": "amenity", "subtype": "shop"}}, {"type": "Feature", "geometry": {"type": "Point", "coordinates": [172.6016126, -43.4625749]}, "properties": {"access": "yes", "amenity": "toilets", "changing_table": "no", "drinking_water": "yes", "fee": "no", "female": "yes", "handwashing:soap": "yes", "male": "yes", "toilets:disposal": "flush", "toilets:handwashing": "yes", "toilets:hot_water": "no", "toilets:paper_supplied": "yes", "toilets:position": "seated", "wheelchair": "yes", "osmId": 448091051, "category": "amenity", "subtype": "toilet"}}, {"type": "Feature", "geometry": {"type": "Point", "coordinates": [172.6646845, -43.3242822]}, "properties": {"amenity": "toilets", "osmId": 448222119, "category": "amenity", "subtype": "toilet"}}, {"type": "Feature", "geometry": {"type": "Point", "coordinates": [172.6638562, -43.3259433]}, "properties": {"amenity": "toilets", "fee": "no", "wheelchair": "yes", "osmId": 448222120, "category": "amenity", "subtype": "toilet"}}, {"type": "Feature", "geometry": {"type": "Point", "coordinates": [174.9075518, -41.2802623]}, "properties": {"amenity": "toilets", "fee": "no", "wheelchair": "yes", "osmId": 454126984, "category": "amenity", "subtype": "toilet"}}, {"type": "Feature", "geometry": {"type": "Point", "coordinates": [174.8056314, -41.222859]}, "properties": {"brand": "Woolworths", "brand:wikidata": "Q5176845", "name": "Woolworths", "shop": "supermarket", "osmId": 457871790, "category": "amenity", "subtype": "shop"}}, {"type": "Feature", "geometry": {"type": "Point", "coordinates": [174.8400088, -36.9133452]}, "properties": {"branch": "Sylvia Park", "brand": "PAK'nSAVE", "brand:wikidata": "Q7125339", "brand:wikipedia": "en:Pak'nSave", "contact:facebook": "https://www.facebook.com/PaknsaveSylviaPark", "name": "PAK'nSAVE", "shop": "supermarket", "website": "https://www.paknsave.co.nz/upper-north-island/auckland/sylvia-park", "wheelchair": "yes", "osmId": 462741324, "category": "amenity", "subtype": "shop"}}, {"type": "Feature", "geometry": {"type": "Point", "coordinates": [174.8709888, -36.9129873]}, "properties": {"addr:suburb": "Pakuranga", "branch": "Pakuranga", "brand": "Woolworths", "brand:wikidata": "Q5176845", "name": "Woolworths", "official_name": "Woolworths Pakuranga", "opening_hours": "Mo-Th,Sa 08:00-21:00; Fr,Su off", "phone": "+64 9 570 1649", "shop": "supermarket", "website": "https://www.woolworths.co.nz/store-finder/9204/pakuranga/pakuranga-woolworths", "osmId": 462742666, "category": "amenity", "subtype": "shop"}}, {"type": "Feature", "geometry": {"type": "Point", "coordinates": [172.7867934, -42.5773824]}, "properties": {"amenity": "toilets", "osmId": 466882003, "category": "amenity", "subtype": "toilet"}}, {"type": "Feature", "geometry": {"type": "Point", "coordinates": [174.8961612, -37.0221777]}, "properties": {"branch": "Manurewa", "brand": "New World", "brand:wikidata": "Q7012488", "brand:wikipedia": "en:New World (supermarket)", "name": "New World", "opening_hours": "Mo-Su 07:00-21:30", "shop": "supermarket", "wheelchair": "yes", "osmId": 467022873, "category": "amenity", "subtype": "shop"}}, {"type": "Feature", "geometry": {"type": "Point", "coordinates": [168.9569432, -44.8607223]}, "properties": {"amenity": "toilets", "osmId": 467105626, "category": "amenity", "subtype": "toilet"}}, {"type": "Feature", "geometry": {"type": "Point", "coordinates": [174.8947215, -37.021981]}, "properties": {"name": "Station Road Dairy", "shop": "convenience", "osmId": 468079660, "category": "amenity", "subtype": "shop"}}, {"type": "Feature", "geometry": {"type": "Point", "coordinates": [174.8996424, -37.0236558]}, "properties": {"amenity": "fuel", "brand": "Z", "brand:wikidata": "Q8063337", "brand:wikipedia": "en:Z Energy", "fuel:diesel": "yes", "fuel:octane_91": "yes", "fuel:octane_95": "yes", "name": "Z Manurewa", "website": "https://www.z.co.nz/find-a-station/station/z-manurewa/", "osmId": 468079716, "category": "amenity", "subtype": "fuel"}}, {"type": "Feature", "geometry": {"type": "Point", "coordinates": [174.8731603, -37.0218459]}, "properties": {"name": "Rowandale Dairy & Superette", "shop": "convenience", "osmId": 468533840, "category": "amenity", "subtype": "shop"}}, {"type": "Feature", "geometry": {"type": "Point", "coordinates": [174.8866317, -37.0279117]}, "properties": {"addr:housenumber": "112", "addr:postcode": "2102", "addr:street": "Weymouth Road", "addr:suburb": "Manurewa", "amenity": "fuel", "brand": "Caltex", "brand:wikidata": "Q277470", "brand:wikipedia": "en:Caltex", "fuel:diesel": "yes", "fuel:lpg": "yes", "fuel:octane_91": "yes", "fuel:octane_95": "yes", "name": "Caltex Leabank", "ref:linz:address_id": "1229413", "osmId": 468657843, "category": "amenity", "subtype": "fuel"}}, {"type": "Feature", "geometry": {"type": "Point", "coordinates": [174.8931414, -37.0253]}, "properties": {"name": "Weymouth Road Dairy", "shop": "convenience", "osmId": 468657868, "category": "amenity", "subtype": "shop"}}, {"type": "Feature", "geometry": {"type": "Point", "coordinates": [172.6206042, -43.5557647]}, "properties": {"branch": "Barrington", "brand": "FreshChoice", "brand:wikidata": "Q22271877", "brand:wikipedia": "en:FreshChoice", "check_date": "2025-01-13", "name": "FreshChoice", "opening_hours": "Mo-Su 07:00-22:00", "phone": "+64 3 943 9222", "shop": "supermarket", "website": "https://barrington.store.freshchoice.co.nz", "wheelchair": "yes", "osmId": 469313826, "category": "amenity", "subtype": "shop"}}, {"type": "Feature", "geometry": {"type": "Point", "coordinates": [174.8390685, -36.9140354]}, "properties": {"amenity": "fuel", "brand": "Caltex", "brand:wikidata": "Q277470", "brand:wikipedia": "en:Caltex", "name": "Caltex", "osmId": 470258778, "category": "amenity", "subtype": "fuel"}}, {"type": "Feature", "geometry": {"type": "Point", "coordinates": [174.8088638, -36.9036743]}, "properties": {"amenity": "fuel", "brand": "Caltex", "brand:wikidata": "Q277470", "name": "Caltex", "osmId": 470260191, "category": "amenity", "subtype": "fuel"}}, {"type": "Feature", "geometry": {"type": "Point", "coordinates": [174.8714754, -37.0285449]}, "properties": {"name": "Sharland Ave Superette", "shop": "convenience", "osmId": 471746170, "category": "amenity", "subtype": "shop"}}, {"type": "Feature", "geometry": {"type": "Point", "coordinates": [174.8783383, -41.2079603]}, "properties": {"name": "Maungaraki Four Square", "shop": "convenience", "osmId": 471807859, "category": "amenity", "subtype": "shop"}}, {"type": "Feature", "geometry": {"type": "Point", "coordinates": [174.7510254, -36.8583664]}, "properties": {"amenity": "toilets", "fee": "no", "wheelchair": "yes", "osmId": 473434751, "category": "amenity", "subtype": "toilet"}}, {"type": "Feature", "geometry": {"type": "Point", "coordinates": [174.6976388, -36.8694235]}, "properties": {"access": "yes", "amenity": "toilets", "fee": "no", "osmId": 475561086, "category": "amenity", "subtype": "toilet"}}, {"type": "Feature", "geometry": {"type": "Point", "coordinates": [174.7496357, -41.295048]}, "properties": {"amenity": "toilets", "fee": "no", "opening_hours": "Mo-Su 09:00-17:00", "wheelchair": "yes", "osmId": 477077542, "category": "amenity", "subtype": "toilet"}}, {"type": "Feature", "geometry": {"type": "Point", "coordinates": [174.8931228, -41.1168917]}, "properties": {"addr:city": "Porirua", "addr:housenumber": "69A", "addr:postcode": "5024", "addr:street": "Discovery Drive", "addr:suburb": "Whitby", "brand": "New World", "brand:wikidata": "Q7012488", "brand:wikipedia": "en:New World (supermarket)", "check_date": "2025-01-02", "check_date:opening_hours": "2023-02-26", "name": "New World", "opening_hours": "Mo-Su 07:00-21:00", "shop": "supermarket", "wheelchair": "yes", "osmId": 482907481, "category": "amenity", "subtype": "shop"}}, {"type": "Feature", "geometry": {"type": "Point", "coordinates": [172.3640852, -43.610019]}, "properties": {"access": "yes", "amenity": "toilets", "osmId": 484341826, "category": "amenity", "subtype": "toilet"}}, {"type": "Feature", "geometry": {"type": "Point", "coordinates": [174.4784004, -36.9883489]}, "properties": {"amenity": "toilets", "osmId": 485569618, "category": "amenity", "subtype": "toilet"}}, {"type": "Feature", "geometry": {"type": "Point", "coordinates": [174.8851912, -41.037167]}, "properties": {"name": "Pukerua Bay Stores", "opening_hours": "Mo-Fr 08:00-20:00; Sa,Su 09:00-20:00", "shop": "convenience", "osmId": 485609637, "category": "amenity", "subtype": "shop"}}, {"type": "Feature", "geometry": {"type": "Point", "coordinates": [172.6470716, -43.5577771]}, "properties": {"shop": "convenience", "osmId": 486962740, "category": "amenity", "subtype": "shop"}}, {"type": "Feature", "geometry": {"type": "Point", "coordinates": [171.6452715, -43.6328282]}, "properties": {"brand": "Four Square", "brand:wikidata": "Q5475558", "brand:wikipedia": "en:Four Square (supermarket)", "name": "Four Square", "shop": "supermarket", "osmId": 487070388, "category": "amenity", "subtype": "shop"}}, {"type": "Feature", "geometry": {"type": "Point", "coordinates": [171.6457028, -43.6334378]}, "properties": {"addr:housenumber": "34", "addr:street": "The Mall", "branch": "Methven", "brand": "FreshChoice", "brand:wikidata": "Q22271877", "brand:wikipedia": "en:SuperValue", "check_date": "2025-12-12", "email": "admin@methvenfc.co.nz", "name": "FreshChoice", "opening_hours": "08:00-19:00", "operator": "FreshChoice", "payment:cash": "yes", "payment:credit_cards": "yes", "payment:debit_cards": "yes", "phone": "+64 3 302 8050", "shop": "supermarket", "website": "https://methven.store.freshchoice.co.nz/", "osmId": 487070391, "category": "amenity", "subtype": "shop"}}, {"type": "Feature", "geometry": {"type": "Point", "coordinates": [174.7372818, -36.8649551]}, "properties": {"amenity": "toilets", "changing_table": "no", "fee": "no", "wheelchair": "yes", "osmId": 487176341, "category": "amenity", "subtype": "toilet"}}, {"type": "Feature", "geometry": {"type": "Point", "coordinates": [172.7025378, -42.9689456]}, "properties": {"amenity": "toilets", "osmId": 493155288, "category": "amenity", "subtype": "toilet"}}, {"type": "Feature", "geometry": {"type": "Point", "coordinates": [175.3252675, -41.1168682]}, "properties": {"branch": "Featherston", "brand": "FreshChoice", "brand:wikidata": "Q22271877", "name": "FreshChoice", "shop": "supermarket", "osmId": 493965049, "category": "amenity", "subtype": "shop"}}, {"type": "Feature", "geometry": {"type": "Point", "coordinates": [174.9381777, -41.0595678]}, "properties": {"amenity": "drinking_water", "man_made": "water_tap", "osmId": 495940048, "category": "amenity", "subtype": "water"}}, {"type": "Feature", "geometry": {"type": "Point", "coordinates": [170.5336882, -45.8477418]}, "properties": {"name": "Quarry Foodmarket", "opening_hours": "Mo-Fr 07:30-19:00; Sa 08:30-19:00; Su 09:00-19:00; PH 08:30-19:00", "shop": "convenience", "osmId": 502872518, "category": "amenity", "subtype": "shop"}}, {"type": "Feature", "geometry": {"type": "Point", "coordinates": [171.5716232, -42.8017303]}, "properties": {"amenity": "toilets", "osmId": 502884257, "category": "amenity", "subtype": "toilet"}}, {"type": "Feature", "geometry": {"type": "Point", "coordinates": [172.6215548, -43.5477546]}, "properties": {"amenity": "toilets", "fee": "no", "osmId": 502884303, "category": "amenity", "subtype": "toilet"}}, {"type": "Feature", "geometry": {"type": "Point", "coordinates": [174.8999975, -41.3120193]}, "properties": {"amenity": "toilets", "fee": "no", "osmId": 518390867, "category": "amenity", "subtype": "toilet"}}, {"type": "Feature", "geometry": {"type": "Point", "coordinates": [174.7841929, -41.3206432]}, "properties": {"amenity": "toilets", "fee": "no", "osmId": 523834824, "category": "amenity", "subtype": "toilet"}}, {"type": "Feature", "geometry": {"type": "Point", "coordinates": [172.6323267, -43.5133314]}, "properties": {"alt_name": "Quick Market St Albans", "name": "Springfield Discounter", "payment:credit_cards": "yes", "payment:debit_cards": "yes", "shop": "convenience", "osmId": 526600937, "category": "amenity", "subtype": "shop"}}, {"type": "Feature", "geometry": {"type": "Point", "coordinates": [174.7859397, -41.3223779]}, "properties": {"amenity": "toilets", "fee": "no", "osmId": 528553327, "category": "amenity", "subtype": "toilet"}}, {"type": "Feature", "geometry": {"type": "Point", "coordinates": [174.784218, -41.3231661]}, "properties": {"amenity": "toilets", "fee": "no", "osmId": 528553332, "category": "amenity", "subtype": "toilet"}}, {"type": "Feature", "geometry": {"type": "Point", "coordinates": [172.6898352, -43.3220964]}, "properties": {"amenity": "toilets", "osmId": 538166715, "category": "amenity", "subtype": "toilet"}}, {"type": "Feature", "geometry": {"type": "Point", "coordinates": [174.7856492, -36.8492755]}, "properties": {"amenity": "toilets", "osmId": 540592591, "category": "amenity", "subtype": "toilet"}}, {"type": "Feature", "geometry": {"type": "Point", "coordinates": [173.5348128, -42.473355]}, "properties": {"amenity": "toilets", "osmId": 544967889, "category": "amenity", "subtype": "toilet"}}, {"type": "Feature", "geometry": {"type": "Point", "coordinates": [173.5200949, -42.4961603]}, "properties": {"amenity": "toilets", "osmId": 544985943, "category": "amenity", "subtype": "toilet"}}, {"type": "Feature", "geometry": {"type": "Point", "coordinates": [173.5223376, -42.4912835]}, "properties": {"amenity": "toilets", "osmId": 544985951, "category": "amenity", "subtype": "toilet"}}, {"type": "Feature", "geometry": {"type": "Point", "coordinates": [173.5233418, -42.4896078]}, "properties": {"amenity": "toilets", "osmId": 544985964, "category": "amenity", "subtype": "toilet"}}, {"type": "Feature", "geometry": {"type": "Point", "coordinates": [173.5360652, -42.4717733]}, "properties": {"amenity": "toilets", "osmId": 544991417, "category": "amenity", "subtype": "toilet"}}, {"type": "Feature", "geometry": {"type": "Point", "coordinates": [174.9482841, -37.061712]}, "properties": {"amenity": "fuel", "brand": "Z", "brand:wikidata": "Q8063337", "brand:wikipedia": "en:Z Energy", "name": "Z Kingsway", "operator": "Z Energy", "website": "https://www.z.co.nz/find-a-station/station/z-kingsway/", "osmId": 560661698, "category": "amenity", "subtype": "fuel"}}, {"type": "Feature", "geometry": {"type": "Point", "coordinates": [174.8911616, -41.1782312]}, "properties": {"amenity": "toilets", "check_date": "2021-10-01", "osmId": 563646654, "category": "amenity", "subtype": "toilet"}}, {"type": "Feature", "geometry": {"type": "Point", "coordinates": [173.0094214, -40.8349687]}, "properties": {"amenity": "toilets", "check_date": "2024-04-17", "fee": "no", "wheelchair": "no", "osmId": 564253515, "category": "amenity", "subtype": "toilet"}}, {"type": "Feature", "geometry": {"type": "Point", "coordinates": [174.6902656, -36.9087846]}, "properties": {"amenity": "toilets", "fee": "no", "wheelchair": "yes", "osmId": 564570279, "category": "amenity", "subtype": "toilet"}}, {"type": "Feature", "geometry": {"type": "Point", "coordinates": [174.6330742, -36.8774065]}, "properties": {"amenity": "toilets", "check_date": "2024-09-16", "fee": "no", "wheelchair": "yes", "osmId": 564571600, "category": "amenity", "subtype": "toilet"}}, {"type": "Feature", "geometry": {"type": "Point", "coordinates": [172.5274675, -43.1482679]}, "properties": {"amenity": "toilets", "osmId": 566123590, "category": "amenity", "subtype": "toilet"}}, {"type": "Feature", "geometry": {"type": "Point", "coordinates": [172.5537793, -43.1363923]}, "properties": {"amenity": "toilets", "osmId": 566149888, "category": "amenity", "subtype": "toilet"}}, {"type": "Feature", "geometry": {"type": "Point", "coordinates": [172.240573, -43.8877987]}, "properties": {"amenity": "toilets", "osmId": 567243134, "category": "amenity", "subtype": "toilet"}}, {"type": "Feature", "geometry": {"type": "Point", "coordinates": [174.6884868, -36.8959773]}, "properties": {"amenity": "fuel", "brand": "Z", "brand:wikidata": "Q8063337", "brand:wikipedia": "en:Z Energy", "name": "Z", "operator": "Z Energy", "website": "https://www.z.co.nz/find-a-station/station/z-avondale/", "osmId": 569056272, "category": "amenity", "subtype": "fuel"}}, {"type": "Feature", "geometry": {"type": "Point", "coordinates": [174.696312, -36.8993141]}, "properties": {"addr:city": "Auckland", "addr:housenumber": "2060", "addr:postcode": "0600", "addr:street": "Great North Road", "addr:suburb": "Avondale", "amenity": "fuel", "branch": "Avondale", "brand": "Mobil", "brand:wikidata": "Q109676002", "fuel:diesel": "yes", "fuel:octane_91": "yes", "fuel:octane_95": "yes", "fuel:octane_98": "yes", "name": "Mobil", "opening_hours": "24/7", "operator": "Mobil", "phone": "+64 9 828 2339", "website": "https://www.mobil.co.nz/en-nz/find-station/mobil-avondale-auckland-mobilavondale-300400015", "osmId": 574086278, "category": "amenity", "subtype": "fuel"}}, {"type": "Feature", "geometry": {"type": "Point", "coordinates": [174.6547512, -36.9116936]}, "properties": {"amenity": "fuel", "brand": "Mobil", "brand:wikidata": "Q109676002", "name": "Mobil", "opening_hours": "Mo-Su 06:00-23:00", "osmId": 574202924, "category": "amenity", "subtype": "fuel"}}, {"type": "Feature", "geometry": {"type": "Point", "coordinates": [174.6212652, -36.9120008]}, "properties": {"amenity": "fuel", "brand": "Mobil", "brand:wikidata": "Q109676002", "name": "Mobil", "osmId": 574203073, "category": "amenity", "subtype": "fuel"}}, {"type": "Feature", "geometry": {"type": "Point", "coordinates": [174.6290887, -36.8930723]}, "properties": {"amenity": "fuel", "brand": "Z", "brand:wikidata": "Q8063337", "name": "Z", "operator": "Z Energy", "osmId": 574203133, "category": "amenity", "subtype": "fuel"}}, {"type": "Feature", "geometry": {"type": "Point", "coordinates": [174.6905989, -36.9109431]}, "properties": {"amenity": "fuel", "brand": "Gull", "brand:wikidata": "Q111949119", "name": "Gull", "osmId": 574207071, "category": "amenity", "subtype": "fuel"}}, {"type": "Feature", "geometry": {"type": "Point", "coordinates": [174.7127754, -36.8691509]}, "properties": {"amenity": "fuel", "brand": "Z", "brand:wikidata": "Q8063337", "name": "Z", "operator": "Z Energy", "website": "https://www.z.co.nz/find-a-station/station/z-point-chev/", "osmId": 574207097, "category": "amenity", "subtype": "fuel"}}, {"type": "Feature", "geometry": {"type": "Point", "coordinates": [174.7115671, -36.8697188]}, "properties": {"amenity": "fuel", "brand": "Mobil", "brand:wikidata": "Q109676002", "brand:wikipedia": "en:Mobil", "name": "Mobil", "osmId": 574207100, "category": "amenity", "subtype": "fuel"}}, {"type": "Feature", "geometry": {"type": "Point", "coordinates": [174.7212011, -36.8646204]}, "properties": {"amenity": "toilets", "fee": "no", "wheelchair": "yes", "osmId": 577492555, "category": "amenity", "subtype": "toilet"}}, {"type": "Feature", "geometry": {"type": "Point", "coordinates": [174.7528916, -36.859232]}, "properties": {"amenity": "fuel", "brand": "Mobil", "brand:wikidata": "Q109676002", "compressed_air": "yes", "name": "Mobil", "osmId": 577509679, "category": "amenity", "subtype": "fuel"}}, {"type": "Feature", "geometry": {"type": "Point", "coordinates": [174.6304206, -36.8618246]}, "properties": {"amenity": "drinking_water", "osmId": 579407624, "category": "amenity", "subtype": "water"}}, {"type": "Feature", "geometry": {"type": "Point", "coordinates": [174.6379397, -36.866698]}, "properties": {"name": "Dairy", "shop": "convenience", "osmId": 579445643, "category": "amenity", "subtype": "shop"}}, {"type": "Feature", "geometry": {"type": "Point", "coordinates": [174.7039991, -36.8520449]}, "properties": {"access": "yes", "amenity": "toilets", "fee": "no", "osmId": 579473616, "category": "amenity", "subtype": "toilet"}}, {"type": "Feature", "geometry": {"type": "Point", "coordinates": [175.5389425, -37.1386414]}, "properties": {"brand": "PAK'nSAVE", "brand:wikidata": "Q7125339", "brand:wikipedia": "en:Pak'nSave", "contact:facebook": "https://www.facebook.com/PaknSavethamesnz/", "name": "PAK'nSAVE", "opening_hours": "08:00-20:00", "shop": "supermarket", "website": "https://www.paknsave.co.nz/upper-north-island/waikato/thames", "osmId": 581751014, "category": "amenity", "subtype": "shop"}}, {"type": "Feature", "geometry": {"type": "Point", "coordinates": [175.6297238, -37.121668]}, "properties": {"amenity": "toilets", "check_date": "2025-04-13", "fee": "no", "toilets:disposal": "pitlatrine", "unisex": "yes", "osmId": 581796967, "category": "amenity", "subtype": "toilet"}}, {"type": "Feature", "geometry": {"type": "Point", "coordinates": [173.2624843, -35.1125959]}, "properties": {"amenity": "fuel", "brand": "Z", "brand:wikidata": "Q8063337", "name": "Z", "website": "https://www.z.co.nz/find-a-station/station/z-kaitaia/", "osmId": 581811053, "category": "amenity", "subtype": "fuel"}}, {"type": "Feature", "geometry": {"type": "Point", "coordinates": [172.674077, -41.16682]}, "properties": {"amenity": "shelter", "name": "Growler Rock Shelter", "ref:linz:topo50_id": "5401924", "shelter_type": "weather_shelter", "osmId": 582473396, "category": "amenity", "subtype": "shelter"}}, {"type": "Feature", "geometry": {"type": "Point", "coordinates": [174.7705291, -41.2963286]}, "properties": {"addr:housenumber": "308", "addr:street": "Willis Street", "addr:suburb": "Aro Valley", "check_date": "2026-01-04", "check_date:opening_hours": "2023-09-02", "name": "Shalimar Mini Market - Four Square", "opening_hours": "Mo-Su 07:00-22:00", "ref:linz:address_id": "1742296", "shop": "convenience", "osmId": 587560369, "category": "amenity", "subtype": "shop"}}, {"type": "Feature", "geometry": {"type": "Point", "coordinates": [174.7664758, -41.2952238]}, "properties": {"name": "Aro Valley Foodmarket", "shop": "convenience", "osmId": 587560506, "category": "amenity", "subtype": "shop"}}, {"type": "Feature", "geometry": {"type": "Point", "coordinates": [174.4741015, -35.5566442]}, "properties": {"access": "yes", "amenity": "toilets", "changing_table": "no", "drinking_water": "yes", "drinking_water:legal": "no", "fee": "no", "female": "yes", "male": "yes", "note": "non-potable water sign next to the hand basin. still drinking_water=yes ist tagged. Is this tag correct? if yes, please note or put it in the description. Otherwise map drinking_water=no", "toilets:disposal": "flush", "toilets:handwashing": "yes", "toilets:position": "seated", "unisex": "yes", "wheelchair": "limited", "osmId": 591839743, "category": "amenity", "subtype": "toilet"}}, {"type": "Feature", "geometry": {"type": "Point", "coordinates": [174.503586, -35.5656535]}, "properties": {"name": "Matapouri Bay Store", "opening_hours": "Mo-Su 07:00-19:00", "shop": "convenience", "osmId": 594380432, "category": "amenity", "subtype": "shop"}}, {"type": "Feature", "geometry": {"type": "Point", "coordinates": [168.6613622, -45.0304354]}, "properties": {"branch": "Alpine", "brand": "Four Square", "brand:wikidata": "Q5475558", "brand:wikipedia": "en:Four Square (supermarket)", "check_date": "2023-08-12", "name": "Four Square", "opening_hours": "Mo-Su 07:00-22:00", "payment:mastercard": "yes", "payment:visa": "yes", "phone": "+64 3-442 8961", "shop": "supermarket", "website": "https://www.foursquare.co.nz/south-island/otago/alpine", "wheelchair": "yes", "osmId": 595464790, "category": "amenity", "subtype": "shop"}}, {"type": "Feature", "geometry": {"type": "Point", "coordinates": [168.6613769, -45.0308864]}, "properties": {"access": "yes", "amenity": "toilets", "check_date": "2023-08-12", "fee": "no", "level": "0", "portable": "no", "toilets:disposal": "flush", "wheelchair": "yes", "osmId": 595476109, "category": "amenity", "subtype": "toilet"}}, {"type": "Feature", "geometry": {"type": "Point", "coordinates": [174.2850194, -39.5897637]}, "properties": {"access": "yes", "amenity": "toilets", "check_date": "2024-08-23", "fee": "no", "female": "yes", "male": "yes", "toilets:disposal": "flush", "toilets:position": "seated;urinal", "wheelchair": "yes", "osmId": 599442082, "category": "amenity", "subtype": "toilet"}}, {"type": "Feature", "geometry": {"type": "Point", "coordinates": [174.8422126, -41.1332223]}, "properties": {"amenity": "fuel", "brand": "Caltex", "brand:wikidata": "Q277470", "brand:wikipedia": "en:Caltex", "car_wash": "yes", "compressed_air": "yes", "name": "Caltex", "operator": "Caltex", "osmId": 601379266, "category": "amenity", "subtype": "fuel"}}, {"type": "Feature", "geometry": {"type": "Point", "coordinates": [176.6255631, -39.8946475]}, "properties": {"amenity": "toilets", "osmId": 606335185, "category": "amenity", "subtype": "toilet"}}, {"type": "Feature", "geometry": {"type": "Point", "coordinates": [173.7657018, -41.2764011]}, "properties": {"amenity": "fuel", "brand": "Allied Petroleum", "brand:wikidata": "Q112543637", "name": "Allied Havelock", "osmId": 608986589, "category": "amenity", "subtype": "fuel"}}, {"type": "Feature", "geometry": {"type": "Point", "coordinates": [173.2934397, -41.2631915]}, "properties": {"amenity": "toilets", "osmId": 610608049, "category": "amenity", "subtype": "toilet"}}, {"type": "Feature", "geometry": {"type": "Point", "coordinates": [175.8102787, -38.9886554]}, "properties": {"amenity": "toilets", "check_date": "2024-09-10", "drinking_water": "yes", "fee": "no", "female": "yes", "male": "yes", "supervised": "no", "toilets:disposal": "flush", "unisex": "no", "wheelchair": "no", "osmId": 610729504, "category": "amenity", "subtype": "toilet"}}, {"type": "Feature", "geometry": {"type": "Point", "coordinates": [172.9011982, -43.6794838]}, "properties": {"amenity": "toilets", "osmId": 611414201, "category": "amenity", "subtype": "toilet"}}, {"type": "Feature", "geometry": {"type": "Point", "coordinates": [174.7584759, -36.9086526]}, "properties": {"amenity": "toilets", "osmId": 612559482, "category": "amenity", "subtype": "toilet"}}, {"type": "Feature", "geometry": {"type": "Point", "coordinates": [171.7420402, -43.8816764]}, "properties": {"amenity": "toilets", "osmId": 613272085, "category": "amenity", "subtype": "toilet"}}, {"type": "Feature", "geometry": {"type": "Point", "coordinates": [175.457834, -41.2171072]}, "properties": {"amenity": "fuel", "brand": "BP", "brand:wikidata": "Q152057", "brand:wikipedia": "en:BP", "fuel:diesel": "yes", "fuel:lpg": "yes", "fuel:octane_91": "yes", "fuel:octane_95": "yes", "name": "BP Martinborough", "phone": "+64 6 306 9104", "osmId": 616145819, "category": "amenity", "subtype": "fuel"}}, {"type": "Feature", "geometry": {"type": "Point", "coordinates": [169.3107137, -45.1710691]}, "properties": {"amenity": "toilets", "check_date": "2025-01-22", "check_date:wheelchair": "2025-01-22", "fee": "no", "wheelchair": "yes", "osmId": 617950365, "category": "amenity", "subtype": "toilet"}}, {"type": "Feature", "geometry": {"type": "Point", "coordinates": [174.8555743, -36.8801886]}, "properties": {"amenity": "fuel", "brand": "Mobil", "brand:wikidata": "Q109676002", "brand:wikipedia": "ja:\u30e2\u30fc\u30d3\u30eb (\u30d6\u30e9\u30f3\u30c9)", "compressed_air": "yes", "name": "Mobil", "operator": "Mobil", "osmId": 620968405, "category": "amenity", "subtype": "fuel"}}, {"type": "Feature", "geometry": {"type": "Point", "coordinates": [173.3788591, -34.8701601]}, "properties": {"amenity": "fuel", "name": "Bay View Services", "osmId": 622253340, "category": "amenity", "subtype": "fuel"}}, {"type": "Feature", "geometry": {"type": "Point", "coordinates": [174.8061368, -36.8277231]}, "properties": {"amenity": "toilets", "fee": "no", "toilets:disposal": "flush", "osmId": 623487008, "category": "amenity", "subtype": "toilet"}}, {"type": "Feature", "geometry": {"type": "Point", "coordinates": [174.791708, -41.3299545]}, "properties": {"check_date": "2023-11-10", "name": "Queens Drive Dairy", "opening_hours:signed": "no", "shop": "convenience", "osmId": 623646753, "category": "amenity", "subtype": "shop"}}, {"type": "Feature", "geometry": {"type": "Point", "coordinates": [174.8257115, -41.3069942]}, "properties": {"check_date": "2024-07-30", "name": "Darlington Superette", "shop": "convenience", "osmId": 623878400, "category": "amenity", "subtype": "shop"}}, {"type": "Feature", "geometry": {"type": "Point", "coordinates": [174.7952656, -41.3256552]}, "properties": {"name": "Onepu road dairy", "opening_hours": "Mo-Sa 07:00-20:30; Su 07:30-20:00", "shop": "convenience", "osmId": 626311360, "category": "amenity", "subtype": "shop"}}, {"type": "Feature", "geometry": {"type": "Point", "coordinates": [174.7958098, -41.3200584]}, "properties": {"addr:city": "Wellington", "addr:housenumber": "31", "addr:street": "Coutts Street", "addr:suburb": "Kilbirnie", "level": "0", "name": "The Spice Emporium", "opening_hours": "Mo-Sa 09:00-20:00; Su 10:00-19:00", "ref:linz:address_id": "3113179", "shop": "supermarket", "website": "https://www.facebook.com/pg/thespiceemporium", "wheelchair": "yes", "osmId": 627273503, "category": "amenity", "subtype": "shop"}}, {"type": "Feature", "geometry": {"type": "Point", "coordinates": [174.6310684, -36.8803435]}, "properties": {"amenity": "toilets", "check_date": "2024-11-05", "check_date:wheelchair": "2024-11-05", "fee": "no", "wheelchair": "yes", "osmId": 633633077, "category": "amenity", "subtype": "toilet"}}, {"type": "Feature", "geometry": {"type": "Point", "coordinates": [174.7002526, -36.929926]}, "properties": {"amenity": "toilets", "fee": "no", "wheelchair": "yes", "osmId": 639535013, "category": "amenity", "subtype": "toilet"}}, {"type": "Feature", "geometry": {"type": "Point", "coordinates": [172.4397307, -40.8946428]}, "properties": {"amenity": "shelter", "name": "Aorere Shelter", "osmId": 648858761, "category": "amenity", "subtype": "shelter"}}, {"type": "Feature", "geometry": {"type": "Point", "coordinates": [174.7735219, -36.8446844]}, "properties": {"amenity": "fuel", "brand": "Z", "brand:wikidata": "Q8063337", "brand:wikipedia": "en:Z Energy", "compressed_air": "yes", "name": "Z", "operator": "Z Energy", "website": "https://www.z.co.nz/find-a-station/station/z-quay-st/", "osmId": 648872457, "category": "amenity", "subtype": "fuel"}}, {"type": "Feature", "geometry": {"type": "Point", "coordinates": [174.8300766, -36.6150193]}, "properties": {"amenity": "toilets", "shower": "yes", "osmId": 656549246, "category": "amenity", "subtype": "toilet"}}, {"type": "Feature", "geometry": {"type": "Point", "coordinates": [174.8280821, -36.6070774]}, "properties": {"amenity": "drinking_water", "osmId": 656549336, "category": "amenity", "subtype": "water"}}, {"type": "Feature", "geometry": {"type": "Point", "coordinates": [174.6641584, -36.9085894]}, "properties": {"amenity": "fuel", "brand": "Mobil", "brand:wikidata": "Q109676002", "brand:wikipedia": "en:Mobil", "name": "Mobil", "osmId": 659029238, "category": "amenity", "subtype": "fuel"}}, {"type": "Feature", "geometry": {"type": "Point", "coordinates": [174.6813584, -36.9027718]}, "properties": {"amenity": "fuel", "brand": "Z", "brand:wikidata": "Q8063337", "name": "Z", "operator": "Z Energy", "website": "https://www.z.co.nz/find-a-station/station/z-new-lynn/", "osmId": 659590239, "category": "amenity", "subtype": "fuel"}}, {"type": "Feature", "geometry": {"type": "Point", "coordinates": [174.8461973, -36.9034699]}, "properties": {"amenity": "toilets", "check_date": "2024-08-17", "fee": "no", "osmId": 660565019, "category": "amenity", "subtype": "toilet"}}, {"type": "Feature", "geometry": {"type": "Point", "coordinates": [174.6482784, -36.8630195]}, "properties": {"amenity": "fuel", "brand": "Caltex", "brand:wikidata": "Q277470", "brand:wikipedia": "en:Caltex", "compressed_air": "yes", "name": "Caltex", "osmId": 661945264, "category": "amenity", "subtype": "fuel"}}, {"type": "Feature", "geometry": {"type": "Point", "coordinates": [174.6556654, -36.8757785]}, "properties": {"amenity": "toilets", "osmId": 661953988, "category": "amenity", "subtype": "toilet"}}, {"type": "Feature", "geometry": {"type": "Point", "coordinates": [174.6168734, -36.8952127]}, "properties": {"amenity": "toilets", "osmId": 661969719, "category": "amenity", "subtype": "toilet"}}, {"type": "Feature", "geometry": {"type": "Point", "coordinates": [174.6970507, -36.8966681]}, "properties": {"amenity": "toilets", "opening_hours": "24/7", "wheelchair": "yes", "osmId": 662763090, "category": "amenity", "subtype": "toilet"}}, {"type": "Feature", "geometry": {"type": "Point", "coordinates": [174.780243, -36.8544855]}, "properties": {"amenity": "toilets", "changing_table": "no", "fee": "no", "wheelchair": "yes", "osmId": 666779086, "category": "amenity", "subtype": "toilet"}}, {"type": "Feature", "geometry": {"type": "Point", "coordinates": [172.6470571, -43.5617799]}, "properties": {"amenity": "drinking_water", "check_date": "2021-11-25", "osmId": 667236344, "category": "amenity", "subtype": "water"}}, {"type": "Feature", "geometry": {"type": "Point", "coordinates": [174.4648471, -36.9430168]}, "properties": {"amenity": "toilets", "osmId": 667236373, "category": "amenity", "subtype": "toilet"}}, {"type": "Feature", "geometry": {"type": "Point", "coordinates": [170.0947416, -46.0233004]}, "properties": {"name": "Waihola Store", "shop": "convenience", "osmId": 667890575, "category": "amenity", "subtype": "shop"}}, {"type": "Feature", "geometry": {"type": "Point", "coordinates": [175.5624262, -38.5112858]}, "properties": {"amenity": "toilets", "fee": "no", "osmId": 676068108, "category": "amenity", "subtype": "toilet"}}, {"type": "Feature", "geometry": {"type": "Point", "coordinates": [174.9163806, -41.1047388]}, "properties": {"addr:city": "Porirua", "addr:district": "RD1", "addr:hamlet": "P\u0101uatahanui", "addr:housenumber": "17", "addr:postcode": "5381", "addr:street": "Paekakariki Hill Road", "check_date:opening_hours": "2021-12-28", "name": "Pauatahanui General Store and Post Office", "opening_hours": "Mo-Su 07:30-18:30", "ref:linz:address_id": "1446571", "shop": "convenience", "wheelchair": "yes", "osmId": 678148474, "category": "amenity", "subtype": "shop"}}, {"type": "Feature", "geometry": {"type": "Point", "coordinates": [173.5285265, -35.6000524]}, "properties": {"access": "yes", "amenity": "toilets", "fee": "no", "female": "yes", "male": "yes", "toilets:disposal": "flush", "wheelchair": "yes", "osmId": 683216514, "category": "amenity", "subtype": "toilet"}}, {"type": "Feature", "geometry": {"type": "Point", "coordinates": [175.6955208, -38.1569571]}, "properties": {"amenity": "toilets", "osmId": 687386264, "category": "amenity", "subtype": "toilet"}}, {"type": "Feature", "geometry": {"type": "Point", "coordinates": [174.6202238, -36.8731576]}, "properties": {"amenity": "toilets", "osmId": 688230567, "category": "amenity", "subtype": "toilet"}}, {"type": "Feature", "geometry": {"type": "Point", "coordinates": [175.5321581, -37.6558202]}, "properties": {"amenity": "fuel", "brand": "BP", "brand:wikidata": "Q152057", "brand:wikipedia": "en:BP", "compressed_air": "yes", "name": "BP", "osmId": 690257509, "category": "amenity", "subtype": "fuel"}}, {"type": "Feature", "geometry": {"type": "Point", "coordinates": [174.945342, -37.2629585]}, "properties": {"amenity": "toilets", "osmId": 690262934, "category": "amenity", "subtype": "toilet"}}, {"type": "Feature", "geometry": {"type": "Point", "coordinates": [175.0466857, -37.277893]}, "properties": {"amenity": "fuel", "brand": "Mobil", "brand:wikidata": "Q109676002", "name": "Mobil", "osmId": 690290924, "category": "amenity", "subtype": "fuel"}}, {"type": "Feature", "geometry": {"type": "Point", "coordinates": [174.945962, -37.263954]}, "properties": {"amenity": "toilets", "osmId": 691034172, "category": "amenity", "subtype": "toilet"}}, {"type": "Feature", "geometry": {"type": "Point", "coordinates": [174.9476786, -37.2606728]}, "properties": {"amenity": "toilets", "osmId": 691034175, "category": "amenity", "subtype": "toilet"}}, {"type": "Feature", "geometry": {"type": "Point", "coordinates": [174.6040181, -36.8345409]}, "properties": {"amenity": "fuel", "brand": "Challenge", "brand:wikidata": "Q5068888", "name": "Challenge!", "osmId": 691391221, "category": "amenity", "subtype": "fuel"}}, {"type": "Feature", "geometry": {"type": "Point", "coordinates": [174.6636616, -36.9095421]}, "properties": {"branch": "Kelston", "brand": "Woolworths", "brand:wikidata": "Q5176845", "brand:wikipedia": "en:Woolworths New Zealand", "name": "Woolworths", "shop": "supermarket", "osmId": 692964149, "category": "amenity", "subtype": "shop"}}, {"type": "Feature", "geometry": {"type": "Point", "coordinates": [174.7496192, -41.2815305]}, "properties": {"addr:housenumber": "102", "addr:postcode": "6012", "addr:street": "Karori Road", "addr:suburb": "Karori", "name": "Standen Street Dairy", "ref:linz:address_id": "347696", "shop": "convenience", "osmId": 693891153, "category": "amenity", "subtype": "shop"}}, {"type": "Feature", "geometry": {"type": "Point", "coordinates": [174.6026497, -36.8356048]}, "properties": {"amenity": "toilets", "osmId": 694111166, "category": "amenity", "subtype": "toilet"}}, {"type": "Feature", "geometry": {"type": "Point", "coordinates": [174.6032326, -36.8350345]}, "properties": {"amenity": "fuel", "brand": "Mobil", "brand:wikidata": "Q109676002", "name": "Mobil Don Buck", "osmId": 694111168, "category": "amenity", "subtype": "fuel"}}, {"type": "Feature", "geometry": {"type": "Point", "coordinates": [174.9853923, -37.3410235]},